City,Country Code,Latitude,Longitude,Temperature,Humidity,Cloudiness,Wind Speed,URL
Ushuaia,AR,-54.8,-68.3,59.0,44,75,12.75,"http://api.openweathermap.org/data/2.5/weather?q=ushuaia,ar&units=imperial&appid=InsertKey"
Yar-Sale,RU,66.83,70.83,6.68,88,64,19.84,"http://api.openweathermap.org/data/2.5/weather?q=yar-sale,ru&units=imperial&appid=InsertKey"
Saint George,BM,32.38,-64.68,66.2,63,75,28.86,"http://api.openweathermap.org/data/2.5/weather?q=saint george,bm&units=imperial&appid=InsertKey"
Alta Floresta,BR,-9.88,-56.09,78.23,82,0,1.79,"http://api.openweathermap.org/data/2.5/weather?q=alta floresta,br&units=imperial&appid=InsertKey"
Ponta do Sol,CV,17.2,-25.09,73.42,100,80,20.24,"http://api.openweathermap.org/data/2.5/weather?q=ponta do sol,cv&units=imperial&appid=InsertKey"
Cape Town,ZA,-33.93,18.42,60.8,93,75,2.24,"http://api.openweathermap.org/data/2.5/weather?q=cape town,za&units=imperial&appid=InsertKey"
Bambous Virieux,MU,-20.34,57.76,78.8,88,75,6.93,"http://api.openweathermap.org/data/2.5/weather?q=bambous virieux,mu&units=imperial&appid=InsertKey"
Qaanaaq,GL,77.48,-69.36,12.37,89,76,5.39,"http://api.openweathermap.org/data/2.5/weather?q=qaanaaq,gl&units=imperial&appid=InsertKey"
El Carmen,BO,-17.85,-63.22,89.6,52,20,12.75,"http://api.openweathermap.org/data/2.5/weather?q=el carmen,bo&units=imperial&appid=InsertKey"
Warwick,AU,-28.23,152.02,74.77,80,0,4.81,"http://api.openweathermap.org/data/2.5/weather?q=warwick,au&units=imperial&appid=InsertKey"
Hithadhoo,MV,-0.6,73.08,81.65,100,92,8.55,"http://api.openweathermap.org/data/2.5/weather?q=hithadhoo,mv&units=imperial&appid=InsertKey"
Rikitea,PF,-23.12,-134.97,76.39,100,48,13.91,"http://api.openweathermap.org/data/2.5/weather?q=rikitea,pf&units=imperial&appid=InsertKey"
Butaritari,KI,3.07,172.79,83.32,100,0,14.09,"http://api.openweathermap.org/data/2.5/weather?q=butaritari,ki&units=imperial&appid=InsertKey"
Vaini,TO,-21.2,-175.2,78.8,65,40,9.78,"http://api.openweathermap.org/data/2.5/weather?q=vaini,to&units=imperial&appid=InsertKey"
Susangerd,IR,31.56,48.18,41.0,75,8,2.24,"http://api.openweathermap.org/data/2.5/weather?q=susangerd,ir&units=imperial&appid=InsertKey"
Pevek,RU,69.7,170.31,17.84,86,88,24.76,"http://api.openweathermap.org/data/2.5/weather?q=pevek,ru&units=imperial&appid=InsertKey"
Punta Arenas,CL,-53.15,-70.92,57.2,54,75,26.4,"http://api.openweathermap.org/data/2.5/weather?q=punta arenas,cl&units=imperial&appid=InsertKey"
Busselton,AU,-33.65,115.33,65.36,100,20,5.82,"http://api.openweathermap.org/data/2.5/weather?q=busselton,au&units=imperial&appid=InsertKey"
Paamiut,GL,61.99,-49.67,27.83,93,20,10.67,"http://api.openweathermap.org/data/2.5/weather?q=paamiut,gl&units=imperial&appid=InsertKey"
Beloha,MG,-25.17,45.05,76.43,66,76,2.35,"http://api.openweathermap.org/data/2.5/weather?q=beloha,mg&units=imperial&appid=InsertKey"
Zhongshu,CN,24.52,103.77,39.17,89,64,3.06,"http://api.openweathermap.org/data/2.5/weather?q=zhongshu,cn&units=imperial&appid=InsertKey"
Bethel,US,41.37,-73.41,25.59,32,1,11.41,"http://api.openweathermap.org/data/2.5/weather?q=bethel,us&units=imperial&appid=InsertKey"
Cabo San Lucas,MX,22.89,-109.91,71.6,68,90,5.82,"http://api.openweathermap.org/data/2.5/weather?q=cabo san lucas,mx&units=imperial&appid=InsertKey"
East London,ZA,-33.02,27.91,67.07,100,92,29.19,"http://api.openweathermap.org/data/2.5/weather?q=east london,za&units=imperial&appid=InsertKey"
Reporoa,NZ,-38.43,176.35,62.84,66,88,7.16,"http://api.openweathermap.org/data/2.5/weather?q=reporoa,nz&units=imperial&appid=InsertKey"
Tumen,CN,42.97,129.84,-14.65,64,0,2.39,"http://api.openweathermap.org/data/2.5/weather?q=tumen,cn&units=imperial&appid=InsertKey"
Gdansk,PL,54.35,18.65,32.0,100,0,17.22,"http://api.openweathermap.org/data/2.5/weather?q=gdansk,pl&units=imperial&appid=InsertKey"
Arraial do Cabo,BR,-22.97,-42.03,72.38,93,24,12.57,"http://api.openweathermap.org/data/2.5/weather?q=arraial do cabo,br&units=imperial&appid=InsertKey"
Dikson,RU,73.51,80.55,-7.63,100,92,22.15,"http://api.openweathermap.org/data/2.5/weather?q=dikson,ru&units=imperial&appid=InsertKey"
Athabasca,CA,54.72,-113.29,31.88,73,0,14.09,"http://api.openweathermap.org/data/2.5/weather?q=athabasca,ca&units=imperial&appid=InsertKey"
Dingle,IE,52.14,-10.27,47.09,100,48,36.84,"http://api.openweathermap.org/data/2.5/weather?q=dingle,ie&units=imperial&appid=InsertKey"
Hobart,AU,-42.88,147.33,77.0,44,0,17.22,"http://api.openweathermap.org/data/2.5/weather?q=hobart,au&units=imperial&appid=InsertKey"
Krian,ID,-7.41,112.58,77.0,94,20,1.12,"http://api.openweathermap.org/data/2.5/weather?q=krian,id&units=imperial&appid=InsertKey"
Tura,RU,64.28,100.25,-25.99,39,24,2.28,"http://api.openweathermap.org/data/2.5/weather?q=tura,ru&units=imperial&appid=InsertKey"
Vila Franca do Campo,PT,37.72,-25.43,60.8,93,40,3.36,"http://api.openweathermap.org/data/2.5/weather?q=vila franca do campo,pt&units=imperial&appid=InsertKey"
Hualmay,PE,-11.1,-77.61,66.04,81,68,5.03,"http://api.openweathermap.org/data/2.5/weather?q=hualmay,pe&units=imperial&appid=InsertKey"
Dukat,RU,62.55,155.55,-22.39,59,36,7.83,"http://api.openweathermap.org/data/2.5/weather?q=dukat,ru&units=imperial&appid=InsertKey"
Coahuayana,MX,18.73,-103.68,80.6,42,40,6.93,"http://api.openweathermap.org/data/2.5/weather?q=coahuayana,mx&units=imperial&appid=InsertKey"
Pahalgam,IN,34.03,75.33,5.29,77,68,1.5,"http://api.openweathermap.org/data/2.5/weather?q=pahalgam,in&units=imperial&appid=InsertKey"
Qaanaaq,GL,77.48,-69.36,13.39,91,80,7.09,"http://api.openweathermap.org/data/2.5/weather?q=qaanaaq,gl&units=imperial&appid=InsertKey"
Atuona,PF,-9.8,-139.03,80.21,100,24,12.35,"http://api.openweathermap.org/data/2.5/weather?q=atuona,pf&units=imperial&appid=InsertKey"
Kruisfontein,ZA,-34.0,24.73,61.09,91,100,12.68,"http://api.openweathermap.org/data/2.5/weather?q=kruisfontein,za&units=imperial&appid=InsertKey"
Kapit,MY,2.02,112.93,72.56,98,88,2.62,"http://api.openweathermap.org/data/2.5/weather?q=kapit,my&units=imperial&appid=InsertKey"
Hilo,US,19.73,-155.09,66.27,78,40,13.87,"http://api.openweathermap.org/data/2.5/weather?q=hilo,us&units=imperial&appid=InsertKey"
Fuling,CN,29.7,107.39,41.69,93,48,2.62,"http://api.openweathermap.org/data/2.5/weather?q=fuling,cn&units=imperial&appid=InsertKey"
Vardo,NO,70.37,31.11,26.47,86,75,11.41,"http://api.openweathermap.org/data/2.5/weather?q=vardo,no&units=imperial&appid=InsertKey"
Galesong,ID,-5.32,119.37,77.0,94,20,3.36,"http://api.openweathermap.org/data/2.5/weather?q=galesong,id&units=imperial&appid=InsertKey"
Quatre Cocos,MU,-20.21,57.76,78.8,88,75,6.93,"http://api.openweathermap.org/data/2.5/weather?q=quatre cocos,mu&units=imperial&appid=InsertKey"
Puerto Ayora,EC,-0.74,-90.35,78.8,61,20,16.11,"http://api.openweathermap.org/data/2.5/weather?q=puerto ayora,ec&units=imperial&appid=InsertKey"
Adrar,DZ,27.87,-0.29,59.0,22,0,16.11,"http://api.openweathermap.org/data/2.5/weather?q=adrar,dz&units=imperial&appid=InsertKey"
Launceston,AU,-41.45,147.17,73.4,56,12,13.87,"http://api.openweathermap.org/data/2.5/weather?q=launceston,au&units=imperial&appid=InsertKey"
Khatanga,RU,71.97,102.5,-42.28,0,20,4.14,"http://api.openweathermap.org/data/2.5/weather?q=khatanga,ru&units=imperial&appid=InsertKey"
Mawlaik,MM,23.63,94.42,61.58,80,64,2.57,"http://api.openweathermap.org/data/2.5/weather?q=mawlaik,mm&units=imperial&appid=InsertKey"
Castro,CL,-42.47,-73.77,55.64,98,92,10.45,"http://api.openweathermap.org/data/2.5/weather?q=castro,cl&units=imperial&appid=InsertKey"
Cumbum,IN,9.73,77.3,67.84,100,92,1.72,"http://api.openweathermap.org/data/2.5/weather?q=cumbum,in&units=imperial&appid=InsertKey"
Victoria,SC,-4.62,55.45,78.8,88,40,8.05,"http://api.openweathermap.org/data/2.5/weather?q=victoria,sc&units=imperial&appid=InsertKey"
Ancud,CL,-41.87,-73.82,55.82,98,92,11.18,"http://api.openweathermap.org/data/2.5/weather?q=ancud,cl&units=imperial&appid=InsertKey"
Salalah,OM,17.02,54.09,69.8,11,0,12.75,"http://api.openweathermap.org/data/2.5/weather?q=salalah,om&units=imperial&appid=InsertKey"
Kapaa,US,22.08,-159.32,74.39,56,75,19.46,"http://api.openweathermap.org/data/2.5/weather?q=kapaa,us&units=imperial&appid=InsertKey"
Namatanai,PG,-3.67,152.43,82.37,100,80,15.7,"http://api.openweathermap.org/data/2.5/weather?q=namatanai,pg&units=imperial&appid=InsertKey"
Shieli,KZ,44.17,66.75,5.69,75,0,5.26,"http://api.openweathermap.org/data/2.5/weather?q=shieli,kz&units=imperial&appid=InsertKey"
Esperance,AU,-33.87,121.9,64.96,83,56,4.63,"http://api.openweathermap.org/data/2.5/weather?q=esperance,au&units=imperial&appid=InsertKey"
Skibbereen,IE,51.55,-9.27,37.4,86,75,21.92,"http://api.openweathermap.org/data/2.5/weather?q=skibbereen,ie&units=imperial&appid=InsertKey"
Bredasdorp,ZA,-34.53,20.04,62.6,88,88,4.7,"http://api.openweathermap.org/data/2.5/weather?q=bredasdorp,za&units=imperial&appid=InsertKey"
Ulaangom,MN,49.98,92.07,-26.89,34,0,2.28,"http://api.openweathermap.org/data/2.5/weather?q=ulaangom,mn&units=imperial&appid=InsertKey"
Albany,AU,-35.02,117.89,65.09,78,0,4.81,"http://api.openweathermap.org/data/2.5/weather?q=albany,au&units=imperial&appid=InsertKey"
Port Macquarie,AU,-31.43,152.92,77.0,65,0,8.05,"http://api.openweathermap.org/data/2.5/weather?q=port macquarie,au&units=imperial&appid=InsertKey"
Kandry,RU,54.57,54.12,21.08,88,92,16.89,"http://api.openweathermap.org/data/2.5/weather?q=kandry,ru&units=imperial&appid=InsertKey"
Flinders,AU,-34.58,150.86,89.6,29,0,10.29,"http://api.openweathermap.org/data/2.5/weather?q=flinders,au&units=imperial&appid=InsertKey"
Ahipara,NZ,-35.17,173.17,70.54,73,0,16.22,"http://api.openweathermap.org/data/2.5/weather?q=ahipara,nz&units=imperial&appid=InsertKey"
Yerbogachen,RU,61.28,108.01,-13.3,81,56,4.29,"http://api.openweathermap.org/data/2.5/weather?q=yerbogachen,ru&units=imperial&appid=InsertKey"
Timmins,CA,48.47,-81.33,-4.01,70,90,10.29,"http://api.openweathermap.org/data/2.5/weather?q=timmins,ca&units=imperial&appid=InsertKey"
Barrow,US,71.29,-156.79,6.8,77,90,28.86,"http://api.openweathermap.org/data/2.5/weather?q=barrow,us&units=imperial&appid=InsertKey"
Kaeo,NZ,-35.1,173.78,73.82,59,12,14.36,"http://api.openweathermap.org/data/2.5/weather?q=kaeo,nz&units=imperial&appid=InsertKey"
Deputatskiy,RU,69.3,139.9,-29.95,47,32,2.84,"http://api.openweathermap.org/data/2.5/weather?q=deputatskiy,ru&units=imperial&appid=InsertKey"
Fortuna,US,40.6,-124.16,57.2,67,1,8.05,"http://api.openweathermap.org/data/2.5/weather?q=fortuna,us&units=imperial&appid=InsertKey"
Aanekoski,FI,62.6,25.73,33.8,86,90,6.93,"http://api.openweathermap.org/data/2.5/weather?q=aanekoski,fi&units=imperial&appid=InsertKey"
Fairbanks,US,64.84,-147.72,40.48,55,75,14.99,"http://api.openweathermap.org/data/2.5/weather?q=fairbanks,us&units=imperial&appid=InsertKey"
Upernavik,GL,72.79,-56.15,23.02,100,80,4.85,"http://api.openweathermap.org/data/2.5/weather?q=upernavik,gl&units=imperial&appid=InsertKey"
Carnarvon,AU,-24.87,113.63,76.52,85,0,21.14,"http://api.openweathermap.org/data/2.5/weather?q=carnarvon,au&units=imperial&appid=InsertKey"
Chuy,UY,-33.7,-53.46,73.46,77,24,13.98,"http://api.openweathermap.org/data/2.5/weather?q=chuy,uy&units=imperial&appid=InsertKey"
Zhangjiakou,CN,40.81,114.88,3.94,56,68,2.57,"http://api.openweathermap.org/data/2.5/weather?q=zhangjiakou,cn&units=imperial&appid=InsertKey"
Tabuk,SA,28.38,36.58,55.4,54,0,10.29,"http://api.openweathermap.org/data/2.5/weather?q=tabuk,sa&units=imperial&appid=InsertKey"
Boddam,GB,57.47,-1.78,32.0,100,80,9.17,"http://api.openweathermap.org/data/2.5/weather?q=boddam,gb&units=imperial&appid=InsertKey"
Kodiak,US,57.79,-152.41,42.8,75,20,10.29,"http://api.openweathermap.org/data/2.5/weather?q=kodiak,us&units=imperial&appid=InsertKey"
Beringovskiy,RU,63.05,179.32,-5.2,100,0,3.8,"http://api.openweathermap.org/data/2.5/weather?q=beringovskiy,ru&units=imperial&appid=InsertKey"
Zhigansk,RU,66.77,123.37,-25.59,40,68,4.29,"http://api.openweathermap.org/data/2.5/weather?q=zhigansk,ru&units=imperial&appid=InsertKey"
New Norfolk,AU,-42.78,147.06,77.0,44,0,17.22,"http://api.openweathermap.org/data/2.5/weather?q=new norfolk,au&units=imperial&appid=InsertKey"
San Patricio,MX,19.22,-104.7,84.2,66,40,6.93,"http://api.openweathermap.org/data/2.5/weather?q=san patricio,mx&units=imperial&appid=InsertKey"
Nome,US,64.5,-165.41,32.0,91,90,9.17,"http://api.openweathermap.org/data/2.5/weather?q=nome,us&units=imperial&appid=InsertKey"
Pangoa,PE,-12.12,-73.0,69.68,94,8,1.79,"http://api.openweathermap.org/data/2.5/weather?q=pangoa,pe&units=imperial&appid=InsertKey"
Nalut,LY,31.87,10.98,40.88,79,0,2.73,"http://api.openweathermap.org/data/2.5/weather?q=nalut,ly&units=imperial&appid=InsertKey"
Vila Velha,BR,-20.33,-40.29,77.0,73,75,11.41,"http://api.openweathermap.org/data/2.5/weather?q=vila velha,br&units=imperial&appid=InsertKey"
Dunedin,NZ,-45.87,170.5,59.96,81,20,6.31,"http://api.openweathermap.org/data/2.5/weather?q=dunedin,nz&units=imperial&appid=InsertKey"
Los Negros,BO,-17.73,-63.43,89.6,52,20,12.75,"http://api.openweathermap.org/data/2.5/weather?q=los negros,bo&units=imperial&appid=InsertKey"
Rosarito,MX,32.33,-117.03,77.92,18,20,5.82,"http://api.openweathermap.org/data/2.5/weather?q=rosarito,mx&units=imperial&appid=InsertKey"
Poum,NC,-20.23,164.02,77.69,100,92,10.4,"http://api.openweathermap.org/data/2.5/weather?q=poum,nc&units=imperial&appid=InsertKey"
Port Alfred,ZA,-33.59,26.89,63.47,100,92,18.39,"http://api.openweathermap.org/data/2.5/weather?q=port alfred,za&units=imperial&appid=InsertKey"
Kununurra,AU,-15.77,128.73,84.2,79,0,11.41,"http://api.openweathermap.org/data/2.5/weather?q=kununurra,au&units=imperial&appid=InsertKey"
Ambon,ID,-3.7,128.18,80.6,88,40,4.7,"http://api.openweathermap.org/data/2.5/weather?q=ambon,id&units=imperial&appid=InsertKey"
Hambantota,LK,6.12,81.12,75.8,100,0,3.85,"http://api.openweathermap.org/data/2.5/weather?q=hambantota,lk&units=imperial&appid=InsertKey"
Semirom,IR,31.42,51.57,6.41,54,0,2.01,"http://api.openweathermap.org/data/2.5/weather?q=semirom,ir&units=imperial&appid=InsertKey"
Hovd,MN,48.01,91.64,-10.15,45,12,3.13,"http://api.openweathermap.org/data/2.5/weather?q=hovd,mn&units=imperial&appid=InsertKey"
Bluff,NZ,-46.6,168.33,57.35,100,0,5.14,"http://api.openweathermap.org/data/2.5/weather?q=bluff,nz&units=imperial&appid=InsertKey"
Ribeira Grande,PT,38.52,-28.7,64.69,100,92,12.68,"http://api.openweathermap.org/data/2.5/weather?q=ribeira grande,pt&units=imperial&appid=InsertKey"
Mar del Plata,AR,-38.0,-57.56,68.0,77,75,9.17,"http://api.openweathermap.org/data/2.5/weather?q=mar del plata,ar&units=imperial&appid=InsertKey"
Jamestown,SH,-15.94,-5.72,69.5,100,8,11.97,"http://api.openweathermap.org/data/2.5/weather?q=jamestown,sh&units=imperial&appid=InsertKey"
Lumeje,AO,-11.55,20.78,64.91,98,64,6.08,"http://api.openweathermap.org/data/2.5/weather?q=lumeje,ao&units=imperial&appid=InsertKey"
Hermanus,ZA,-34.42,19.23,57.62,98,92,2.24,"http://api.openweathermap.org/data/2.5/weather?q=hermanus,za&units=imperial&appid=InsertKey"
Sarrebourg,FR,48.73,7.05,41.94,100,92,20.8,"http://api.openweathermap.org/data/2.5/weather?q=sarrebourg,fr&units=imperial&appid=InsertKey"
Richards Bay,ZA,-28.78,32.04,69.77,97,92,12.97,"http://api.openweathermap.org/data/2.5/weather?q=richards bay,za&units=imperial&appid=InsertKey"
Milledgeville,US,33.08,-83.23,48.94,39,1,7.87,"http://api.openweathermap.org/data/2.5/weather?q=milledgeville,us&units=imperial&appid=InsertKey"
Lebu,CL,-37.62,-73.65,56.59,98,8,9.95,"http://api.openweathermap.org/data/2.5/weather?q=lebu,cl&units=imperial&appid=InsertKey"
Talnakh,RU,69.49,88.4,-15.46,91,88,7.31,"http://api.openweathermap.org/data/2.5/weather?q=talnakh,ru&units=imperial&appid=InsertKey"
Tasiilaq,GL,65.61,-37.64,26.6,68,20,5.82,"http://api.openweathermap.org/data/2.5/weather?q=tasiilaq,gl&units=imperial&appid=InsertKey"
Vanavara,RU,60.34,102.28,-16.14,70,48,2.62,"http://api.openweathermap.org/data/2.5/weather?q=vanavara,ru&units=imperial&appid=InsertKey"
Umm Lajj,SA,25.02,37.27,59.92,100,0,1.79,"http://api.openweathermap.org/data/2.5/weather?q=umm lajj,sa&units=imperial&appid=InsertKey"
Vasai,IN,19.47,72.8,69.8,73,0,3.36,"http://api.openweathermap.org/data/2.5/weather?q=vasai,in&units=imperial&appid=InsertKey"
Taltal,CL,-25.4,-70.48,61.49,62,0,2.57,"http://api.openweathermap.org/data/2.5/weather?q=taltal,cl&units=imperial&appid=InsertKey"
Yorkton,CA,51.22,-102.47,32.0,80,90,12.75,"http://api.openweathermap.org/data/2.5/weather?q=yorkton,ca&units=imperial&appid=InsertKey"
Pasni,PK,25.26,63.47,63.52,100,0,15.99,"http://api.openweathermap.org/data/2.5/weather?q=pasni,pk&units=imperial&appid=InsertKey"
San Marcos,MX,16.8,-99.35,82.4,58,40,9.17,"http://api.openweathermap.org/data/2.5/weather?q=san marcos,mx&units=imperial&appid=InsertKey"
Millinocket,US,45.66,-68.71,11.12,66,90,17.22,"http://api.openweathermap.org/data/2.5/weather?q=millinocket,us&units=imperial&appid=InsertKey"
Adre,TD,13.47,22.2,69.01,36,0,12.57,"http://api.openweathermap.org/data/2.5/weather?q=adre,td&units=imperial&appid=InsertKey"
Harper,LR,4.38,-7.72,81.79,100,0,7.09,"http://api.openweathermap.org/data/2.5/weather?q=harper,lr&units=imperial&appid=InsertKey"
Yellowknife,CA,62.46,-114.35,15.8,85,75,9.17,"http://api.openweathermap.org/data/2.5/weather?q=yellowknife,ca&units=imperial&appid=InsertKey"
Quelimane,MZ,-17.88,36.89,78.8,78,40,4.7,"http://api.openweathermap.org/data/2.5/weather?q=quelimane,mz&units=imperial&appid=InsertKey"
Robertsport,LR,6.75,-11.37,81.47,100,32,7.76,"http://api.openweathermap.org/data/2.5/weather?q=robertsport,lr&units=imperial&appid=InsertKey"
Chilca,PE,-12.52,-76.74,64.96,90,12,7.05,"http://api.openweathermap.org/data/2.5/weather?q=chilca,pe&units=imperial&appid=InsertKey"
Portland,AU,-38.33,141.6,61.58,100,56,11.34,"http://api.openweathermap.org/data/2.5/weather?q=portland,au&units=imperial&appid=InsertKey"
Nicoya,CR,10.15,-85.45,78.8,61,0,20.8,"http://api.openweathermap.org/data/2.5/weather?q=nicoya,cr&units=imperial&appid=InsertKey"
Souillac,MU,-20.52,57.52,78.8,88,75,6.93,"http://api.openweathermap.org/data/2.5/weather?q=souillac,mu&units=imperial&appid=InsertKey"
Mugango,TZ,-1.68,33.7,66.8,100,12,0.72,"http://api.openweathermap.org/data/2.5/weather?q=mugango,tz&units=imperial&appid=InsertKey"
Hasaki,JP,35.73,140.83,27.93,51,20,9.17,"http://api.openweathermap.org/data/2.5/weather?q=hasaki,jp&units=imperial&appid=InsertKey"
Bandarbeyla,SO,9.49,50.81,75.49,100,0,16.15,"http://api.openweathermap.org/data/2.5/weather?q=bandarbeyla,so&units=imperial&appid=InsertKey"
Peru,US,40.75,-86.07,34.09,92,90,16.11,"http://api.openweathermap.org/data/2.5/weather?q=peru,us&units=imperial&appid=InsertKey"
Jaromerice nad Rokytnou,CZ,49.09,15.89,31.03,74,0,5.82,"http://api.openweathermap.org/data/2.5/weather?q=jaromerice nad rokytnou,cz&units=imperial&appid=InsertKey"
Palana,RU,59.12,159.97,7.31,100,20,22.86,"http://api.openweathermap.org/data/2.5/weather?q=palana,ru&units=imperial&appid=InsertKey"
Sines,PT,37.96,-8.87,57.71,100,76,5.75,"http://api.openweathermap.org/data/2.5/weather?q=sines,pt&units=imperial&appid=InsertKey"
Itoman,JP,26.12,127.67,58.95,67,40,9.17,"http://api.openweathermap.org/data/2.5/weather?q=itoman,jp&units=imperial&appid=InsertKey"
Tiksi,RU,71.69,128.87,-47.59,0,8,2.39,"http://api.openweathermap.org/data/2.5/weather?q=tiksi,ru&units=imperial&appid=InsertKey"
Pamanukan,ID,-6.28,107.81,80.62,100,68,6.82,"http://api.openweathermap.org/data/2.5/weather?q=pamanukan,id&units=imperial&appid=InsertKey"
Yulara,AU,-25.24,130.99,73.4,69,0,8.05,"http://api.openweathermap.org/data/2.5/weather?q=yulara,au&units=imperial&appid=InsertKey"
Halifax,CA,44.65,-63.57,37.69,74,75,26.4,"http://api.openweathermap.org/data/2.5/weather?q=halifax,ca&units=imperial&appid=InsertKey"
Iracoubo,GF,5.48,-53.2,76.16,90,68,4.14,"http://api.openweathermap.org/data/2.5/weather?q=iracoubo,gf&units=imperial&appid=InsertKey"
Bella Union,UY,-30.28,-57.6,83.77,61,24,3.62,"http://api.openweathermap.org/data/2.5/weather?q=bella union,uy&units=imperial&appid=InsertKey"
Novoagansk,RU,61.94,76.66,7.22,87,64,8.28,"http://api.openweathermap.org/data/2.5/weather?q=novoagansk,ru&units=imperial&appid=InsertKey"
Vestmannaeyjar,IS,63.44,-20.27,32.87,100,0,16.15,"http://api.openweathermap.org/data/2.5/weather?q=vestmannaeyjar,is&units=imperial&appid=InsertKey"
Guerrero Negro,MX,27.98,-114.06,70.81,42,0,7.87,"http://api.openweathermap.org/data/2.5/weather?q=guerrero negro,mx&units=imperial&appid=InsertKey"
Bongandanga,CD,1.5,21.05,73.96,90,56,4.03,"http://api.openweathermap.org/data/2.5/weather?q=bongandanga,cd&units=imperial&appid=InsertKey"
Leningradskiy,RU,69.38,178.42,23.6,94,92,27.67,"http://api.openweathermap.org/data/2.5/weather?q=leningradskiy,ru&units=imperial&appid=InsertKey"
Te Anau,NZ,-45.42,167.72,60.46,74,48,4.74,"http://api.openweathermap.org/data/2.5/weather?q=te anau,nz&units=imperial&appid=InsertKey"
Samarai,PG,-10.62,150.67,82.69,100,44,15.48,"http://api.openweathermap.org/data/2.5/weather?q=samarai,pg&units=imperial&appid=InsertKey"
Bernalillo,US,35.3,-106.55,54.37,12,20,2.73,"http://api.openweathermap.org/data/2.5/weather?q=bernalillo,us&units=imperial&appid=InsertKey"
Saint-Philippe,RE,-21.36,55.77,77.0,73,0,4.7,"http://api.openweathermap.org/data/2.5/weather?q=saint-philippe,re&units=imperial&appid=InsertKey"
Egvekinot,RU,66.32,-179.17,21.67,96,88,2.35,"http://api.openweathermap.org/data/2.5/weather?q=egvekinot,ru&units=imperial&appid=InsertKey"
Margate,ZA,-30.86,30.37,67.12,100,92,13.42,"http://api.openweathermap.org/data/2.5/weather?q=margate,za&units=imperial&appid=InsertKey"
General Roca,AR,-39.03,-67.58,82.4,51,0,6.93,"http://api.openweathermap.org/data/2.5/weather?q=general roca,ar&units=imperial&appid=InsertKey"
Norman Wells,CA,65.28,-126.83,8.6,84,40,6.93,"http://api.openweathermap.org/data/2.5/weather?q=norman wells,ca&units=imperial&appid=InsertKey"
Padang,ID,-0.95,100.35,80.21,100,80,6.64,"http://api.openweathermap.org/data/2.5/weather?q=padang,id&units=imperial&appid=InsertKey"
Bichena,ET,10.45,38.2,35.93,58,0,2.84,"http://api.openweathermap.org/data/2.5/weather?q=bichena,et&units=imperial&appid=InsertKey"
Port Elizabeth,ZA,-33.92,25.57,62.6,82,75,23.04,"http://api.openweathermap.org/data/2.5/weather?q=port elizabeth,za&units=imperial&appid=InsertKey"
Port Hardy,CA,50.7,-127.42,44.6,87,75,4.7,"http://api.openweathermap.org/data/2.5/weather?q=port hardy,ca&units=imperial&appid=InsertKey"
College,US,64.86,-147.8,40.48,55,75,14.99,"http://api.openweathermap.org/data/2.5/weather?q=college,us&units=imperial&appid=InsertKey"
Longyearbyen,SJ,78.22,15.64,32.0,90,75,14.99,"http://api.openweathermap.org/data/2.5/weather?q=longyearbyen,sj&units=imperial&appid=InsertKey"
Grand Gaube,MU,-20.01,57.66,78.8,88,75,6.93,"http://api.openweathermap.org/data/2.5/weather?q=grand gaube,mu&units=imperial&appid=InsertKey"
Indianola,US,41.36,-93.56,37.17,64,90,25.28,"http://api.openweathermap.org/data/2.5/weather?q=indianola,us&units=imperial&appid=InsertKey"
Mahebourg,MU,-20.41,57.7,78.8,88,75,6.93,"http://api.openweathermap.org/data/2.5/weather?q=mahebourg,mu&units=imperial&appid=InsertKey"
Chokurdakh,RU,70.63,147.92,-14.34,67,56,4.25,"http://api.openweathermap.org/data/2.5/weather?q=chokurdakh,ru&units=imperial&appid=InsertKey"
Lompoc,US,34.64,-120.46,78.37,7,1,4.7,"http://api.openweathermap.org/data/2.5/weather?q=lompoc,us&units=imperial&appid=InsertKey"
Chapar,IN,26.27,90.47,57.08,89,0,4.52,"http://api.openweathermap.org/data/2.5/weather?q=chapar,in&units=imperial&appid=InsertKey"
Clyde River,CA,70.47,-68.59,1.4,77,1,6.93,"http://api.openweathermap.org/data/2.5/weather?q=clyde river,ca&units=imperial&appid=InsertKey"
Buraydah,SA,26.33,43.98,55.4,43,40,2.24,"http://api.openweathermap.org/data/2.5/weather?q=buraydah,sa&units=imperial&appid=InsertKey"
Rio Bueno,CL,-40.32,-72.97,59.6,76,80,6.08,"http://api.openweathermap.org/data/2.5/weather?q=rio bueno,cl&units=imperial&appid=InsertKey"
Pitman,US,39.73,-75.13,27.09,33,20,12.75,"http://api.openweathermap.org/data/2.5/weather?q=pitman,us&units=imperial&appid=InsertKey"
Bubaque,GW,11.28,-15.83,73.4,53,0,3.36,"http://api.openweathermap.org/data/2.5/weather?q=bubaque,gw&units=imperial&appid=InsertKey"
Srednekolymsk,RU,67.45,153.68,-15.87,71,80,5.53,"http://api.openweathermap.org/data/2.5/weather?q=srednekolymsk,ru&units=imperial&appid=InsertKey"
Sampit,ID,-2.53,112.95,76.52,96,44,4.63,"http://api.openweathermap.org/data/2.5/weather?q=sampit,id&units=imperial&appid=InsertKey"
Trat,TH,12.24,102.52,78.19,100,92,3.51,"http://api.openweathermap.org/data/2.5/weather?q=trat,th&units=imperial&appid=InsertKey"
Fort Nelson,CA,58.81,-122.7,24.8,85,40,3.36,"http://api.openweathermap.org/data/2.5/weather?q=fort nelson,ca&units=imperial&appid=InsertKey"
Naze,JP,28.37,129.48,57.2,54,75,17.22,"http://api.openweathermap.org/data/2.5/weather?q=naze,jp&units=imperial&appid=InsertKey"
Udachnyy,RU,66.42,112.4,-23.79,68,68,3.06,"http://api.openweathermap.org/data/2.5/weather?q=udachnyy,ru&units=imperial&appid=InsertKey"
Tigil,RU,57.8,158.67,-1.47,68,0,6.6,"http://api.openweathermap.org/data/2.5/weather?q=tigil,ru&units=imperial&appid=InsertKey"
Santiago del Estero,AR,-27.8,-64.26,74.32,89,56,16.82,"http://api.openweathermap.org/data/2.5/weather?q=santiago del estero,ar&units=imperial&appid=InsertKey"
Zharkent,KZ,44.16,80.0,-14.7,36,8,2.51,"http://api.openweathermap.org/data/2.5/weather?q=zharkent,kz&units=imperial&appid=InsertKey"
Thompson,CA,55.74,-97.86,-0.41,77,90,2.57,"http://api.openweathermap.org/data/2.5/weather?q=thompson,ca&units=imperial&appid=InsertKey"
Kavieng,PG,-2.57,150.8,82.1,100,76,13.31,"http://api.openweathermap.org/data/2.5/weather?q=kavieng,pg&units=imperial&appid=InsertKey"
Touba,CI,8.28,-7.68,67.66,94,24,2.84,"http://api.openweathermap.org/data/2.5/weather?q=touba,ci&units=imperial&appid=InsertKey"
Magan,RU,62.11,129.53,-36.41,65,68,2.24,"http://api.openweathermap.org/data/2.5/weather?q=magan,ru&units=imperial&appid=InsertKey"
Bemidji,US,47.47,-94.88,16.03,85,90,11.41,"http://api.openweathermap.org/data/2.5/weather?q=bemidji,us&units=imperial&appid=InsertKey"
Jinchang,CN,38.5,102.17,4.43,63,0,3.24,"http://api.openweathermap.org/data/2.5/weather?q=jinchang,cn&units=imperial&appid=InsertKey"
Klaksvik,FO,62.23,-6.59,39.2,80,64,12.75,"http://api.openweathermap.org/data/2.5/weather?q=klaksvik,fo&units=imperial&appid=InsertKey"
Baruun-Urt,MN,46.68,113.28,-19.87,26,48,3.06,"http://api.openweathermap.org/data/2.5/weather?q=baruun-urt,mn&units=imperial&appid=InsertKey"
Pangody,RU,65.85,74.49,1.55,81,48,15.88,"http://api.openweathermap.org/data/2.5/weather?q=pangody,ru&units=imperial&appid=InsertKey"
Ilulissat,GL,69.22,-51.1,19.4,85,64,11.41,"http://api.openweathermap.org/data/2.5/weather?q=ilulissat,gl&units=imperial&appid=InsertKey"
Tuktoyaktuk,CA,69.45,-133.04,-0.41,84,20,14.99,"http://api.openweathermap.org/data/2.5/weather?q=tuktoyaktuk,ca&units=imperial&appid=InsertKey"
Mandalgovi,MN,45.76,106.27,2.09,76,64,9.66,"http://api.openweathermap.org/data/2.5/weather?q=mandalgovi,mn&units=imperial&appid=InsertKey"
Chernigovka,RU,44.34,132.57,3.04,76,56,4.85,"http://api.openweathermap.org/data/2.5/weather?q=chernigovka,ru&units=imperial&appid=InsertKey"
Phek,IN,25.67,94.5,41.15,96,0,1.34,"http://api.openweathermap.org/data/2.5/weather?q=phek,in&units=imperial&appid=InsertKey"
Sambava,MG,-14.27,50.17,77.02,100,92,12.8,"http://api.openweathermap.org/data/2.5/weather?q=sambava,mg&units=imperial&appid=InsertKey"
Mount Isa,AU,-20.73,139.5,91.4,38,0,5.82,"http://api.openweathermap.org/data/2.5/weather?q=mount isa,au&units=imperial&appid=InsertKey"
Georgetown,SH,-7.93,-14.42,75.8,100,68,13.31,"http://api.openweathermap.org/data/2.5/weather?q=georgetown,sh&units=imperial&appid=InsertKey"
Byron Bay,AU,-28.65,153.62,77.0,61,0,5.82,"http://api.openweathermap.org/data/2.5/weather?q=byron bay,au&units=imperial&appid=InsertKey"
Broome,AU,-17.97,122.23,86.0,70,64,12.75,"http://api.openweathermap.org/data/2.5/weather?q=broome,au&units=imperial&appid=InsertKey"
Aitape,PG,-3.14,142.35,81.47,99,12,5.08,"http://api.openweathermap.org/data/2.5/weather?q=aitape,pg&units=imperial&appid=InsertKey"
Kimbe,PG,-5.55,150.14,80.89,100,80,9.44,"http://api.openweathermap.org/data/2.5/weather?q=kimbe,pg&units=imperial&appid=InsertKey"
Namibe,AO,-15.2,12.15,70.85,100,0,5.3,"http://api.openweathermap.org/data/2.5/weather?q=namibe,ao&units=imperial&appid=InsertKey"
Lac du Bonnet,CA,50.25,-96.06,9.07,76,68,5.82,"http://api.openweathermap.org/data/2.5/weather?q=lac du bonnet,ca&units=imperial&appid=InsertKey"
Iqaluit,CA,63.75,-68.51,10.4,60,75,4.7,"http://api.openweathermap.org/data/2.5/weather?q=iqaluit,ca&units=imperial&appid=InsertKey"
Burns Lake,CA,54.23,-125.75,22.34,98,80,2.01,"http://api.openweathermap.org/data/2.5/weather?q=burns lake,ca&units=imperial&appid=InsertKey"
Medzev,SK,48.7,20.89,29.03,90,20,6.93,"http://api.openweathermap.org/data/2.5/weather?q=medzev,sk&units=imperial&appid=InsertKey"
Singaparna,ID,-7.35,108.11,69.19,95,44,2.35,"http://api.openweathermap.org/data/2.5/weather?q=singaparna,id&units=imperial&appid=InsertKey"
Ormara,PK,25.21,64.64,61.04,98,0,10.96,"http://api.openweathermap.org/data/2.5/weather?q=ormara,pk&units=imperial&appid=InsertKey"
Zheleznodorozhnyy,RU,55.75,38.0,32.59,86,80,4.47,"http://api.openweathermap.org/data/2.5/weather?q=zheleznodorozhnyy,ru&units=imperial&appid=InsertKey"
Coquimbo,CL,-29.95,-71.34,66.2,72,0,9.17,"http://api.openweathermap.org/data/2.5/weather?q=coquimbo,cl&units=imperial&appid=InsertKey"
Ranong,TH,9.97,98.63,80.12,100,12,4.74,"http://api.openweathermap.org/data/2.5/weather?q=ranong,th&units=imperial&appid=InsertKey"
Kahramanmaras,TR,37.58,36.93,39.2,66,0,5.82,"http://api.openweathermap.org/data/2.5/weather?q=kahramanmaras,tr&units=imperial&appid=InsertKey"
Burnie,AU,-41.07,145.92,64.91,93,8,18.16,"http://api.openweathermap.org/data/2.5/weather?q=burnie,au&units=imperial&appid=InsertKey"
At-Bashi,KG,41.17,75.81,-9.25,63,8,2.39,"http://api.openweathermap.org/data/2.5/weather?q=at-bashi,kg&units=imperial&appid=InsertKey"
Narsaq,GL,60.92,-46.05,14.0,56,0,1.12,"http://api.openweathermap.org/data/2.5/weather?q=narsaq,gl&units=imperial&appid=InsertKey"
Sola,VU,-13.88,167.55,82.37,99,64,3.85,"http://api.openweathermap.org/data/2.5/weather?q=sola,vu&units=imperial&appid=InsertKey"
Mehamn,NO,71.04,27.85,28.35,92,90,9.17,"http://api.openweathermap.org/data/2.5/weather?q=mehamn,no&units=imperial&appid=InsertKey"
Ishigaki,JP,24.34,124.16,66.2,59,75,20.8,"http://api.openweathermap.org/data/2.5/weather?q=ishigaki,jp&units=imperial&appid=InsertKey"
Dong Hoi,VN,17.48,106.6,72.02,100,88,3.74,"http://api.openweathermap.org/data/2.5/weather?q=dong hoi,vn&units=imperial&appid=InsertKey"
Broken Hill,AU,-31.95,141.43,87.64,31,100,18.05,"http://api.openweathermap.org/data/2.5/weather?q=broken hill,au&units=imperial&appid=InsertKey"
Faanui,PF,-16.48,-151.75,82.69,100,32,1.05,"http://api.openweathermap.org/data/2.5/weather?q=faanui,pf&units=imperial&appid=InsertKey"
Pampa,US,35.54,-100.96,60.39,16,1,9.17,"http://api.openweathermap.org/data/2.5/weather?q=pampa,us&units=imperial&appid=InsertKey"
Atasu,KZ,48.68,71.64,-13.12,59,0,4.52,"http://api.openweathermap.org/data/2.5/weather?q=atasu,kz&units=imperial&appid=InsertKey"
Rawson,AR,-43.3,-65.1,71.84,54,0,10.4,"http://api.openweathermap.org/data/2.5/weather?q=rawson,ar&units=imperial&appid=InsertKey"
North Bend,US,43.41,-124.22,60.8,44,1,3.36,"http://api.openweathermap.org/data/2.5/weather?q=north bend,us&units=imperial&appid=InsertKey"
Finschhafen,PG,-6.6,147.87,79.09,89,32,1.72,"http://api.openweathermap.org/data/2.5/weather?q=finschhafen,pg&units=imperial&appid=InsertKey"
Yabrud,SY,33.97,36.66,46.4,75,0,6.93,"http://api.openweathermap.org/data/2.5/weather?q=yabrud,sy&units=imperial&appid=InsertKey"
Kihei,US,20.79,-156.47,75.06,54,40,17.22,"http://api.openweathermap.org/data/2.5/weather?q=kihei,us&units=imperial&appid=InsertKey"
Saskylakh,RU,71.92,114.08,-30.9,52,64,3.4,"http://api.openweathermap.org/data/2.5/weather?q=saskylakh,ru&units=imperial&appid=InsertKey"
Cherskiy,RU,68.75,161.3,3.67,82,80,8.84,"http://api.openweathermap.org/data/2.5/weather?q=cherskiy,ru&units=imperial&appid=InsertKey"
Caravelas,BR,-17.71,-39.25,77.29,100,100,22.97,"http://api.openweathermap.org/data/2.5/weather?q=caravelas,br&units=imperial&appid=InsertKey"
Karratha,AU,-20.74,116.85,82.1,68,0,5.08,"http://api.openweathermap.org/data/2.5/weather?q=karratha,au&units=imperial&appid=InsertKey"
Champerico,GT,14.3,-91.92,86.0,55,40,9.17,"http://api.openweathermap.org/data/2.5/weather?q=champerico,gt&units=imperial&appid=InsertKey"
Tacoronte,ES,28.48,-16.41,60.3,71,40,2.24,"http://api.openweathermap.org/data/2.5/weather?q=tacoronte,es&units=imperial&appid=InsertKey"
Nanortalik,GL,60.14,-45.24,27.52,100,8,29.42,"http://api.openweathermap.org/data/2.5/weather?q=nanortalik,gl&units=imperial&appid=InsertKey"
Matara,LK,5.95,80.54,73.87,100,0,3.24,"http://api.openweathermap.org/data/2.5/weather?q=matara,lk&units=imperial&appid=InsertKey"
Bathsheba,BB,13.22,-59.52,80.6,83,20,13.87,"http://api.openweathermap.org/data/2.5/weather?q=bathsheba,bb&units=imperial&appid=InsertKey"
Torbay,CA,47.67,-52.73,41.0,100,90,20.8,"http://api.openweathermap.org/data/2.5/weather?q=torbay,ca&units=imperial&appid=InsertKey"
Kalmunai,LK,7.42,81.82,69.59,99,8,3.06,"http://api.openweathermap.org/data/2.5/weather?q=kalmunai,lk&units=imperial&appid=InsertKey"
Tyup,KG,42.73,78.36,1.37,85,20,2.24,"http://api.openweathermap.org/data/2.5/weather?q=tyup,kg&units=imperial&appid=InsertKey"
Kabo,CF,7.7,18.63,72.52,47,12,4.36,"http://api.openweathermap.org/data/2.5/weather?q=kabo,cf&units=imperial&appid=InsertKey"
Port-Gentil,GA,-0.72,8.78,80.6,94,40,4.7,"http://api.openweathermap.org/data/2.5/weather?q=port-gentil,ga&units=imperial&appid=InsertKey"
Pitimbu,BR,-7.47,-34.81,78.8,74,20,6.93,"http://api.openweathermap.org/data/2.5/weather?q=pitimbu,br&units=imperial&appid=InsertKey"
Bonthe,SL,7.53,-12.51,79.58,83,0,4.25,"http://api.openweathermap.org/data/2.5/weather?q=bonthe,sl&units=imperial&appid=InsertKey"
Dudinka,RU,69.41,86.18,-10.65,73,92,20.36,"http://api.openweathermap.org/data/2.5/weather?q=dudinka,ru&units=imperial&appid=InsertKey"
Christchurch,NZ,-43.53,172.63,60.8,82,68,12.75,"http://api.openweathermap.org/data/2.5/weather?q=christchurch,nz&units=imperial&appid=InsertKey"
Husavik,IS,66.04,-17.34,33.8,80,90,2.24,"http://api.openweathermap.org/data/2.5/weather?q=husavik,is&units=imperial&appid=InsertKey"
Murchison,NZ,-41.8,172.33,64.06,52,24,2.24,"http://api.openweathermap.org/data/2.5/weather?q=murchison,nz&units=imperial&appid=InsertKey"
Dongsheng,CN,39.82,109.98,20.86,91,92,10.07,"http://api.openweathermap.org/data/2.5/weather?q=dongsheng,cn&units=imperial&appid=InsertKey"
Walvis Bay,NA,-22.96,14.51,57.2,76,0,1.12,"http://api.openweathermap.org/data/2.5/weather?q=walvis bay,na&units=imperial&appid=InsertKey"
Kavaratti,IN,10.57,72.64,78.82,100,56,7.09,"http://api.openweathermap.org/data/2.5/weather?q=kavaratti,in&units=imperial&appid=InsertKey"
Batemans Bay,AU,-35.72,150.18,85.34,48,12,5.14,"http://api.openweathermap.org/data/2.5/weather?q=batemans bay,au&units=imperial&appid=InsertKey"
Pacific Grove,US,36.62,-121.92,66.74,25,1,14.99,"http://api.openweathermap.org/data/2.5/weather?q=pacific grove,us&units=imperial&appid=InsertKey"
Oktyabrskoye,RU,43.06,44.74,28.69,86,56,1.61,"http://api.openweathermap.org/data/2.5/weather?q=oktyabrskoye,ru&units=imperial&appid=InsertKey"
Aleksandrov Gay,RU,50.15,48.57,31.97,98,92,17.67,"http://api.openweathermap.org/data/2.5/weather?q=aleksandrov gay,ru&units=imperial&appid=InsertKey"
Tual,ID,-5.67,132.75,84.76,100,48,7.87,"http://api.openweathermap.org/data/2.5/weather?q=tual,id&units=imperial&appid=InsertKey"
Okakarara,NA,-20.58,17.43,68.69,27,0,12.3,"http://api.openweathermap.org/data/2.5/weather?q=okakarara,na&units=imperial&appid=InsertKey"
Ndele,CF,8.41,20.65,69.14,52,0,4.29,"http://api.openweathermap.org/data/2.5/weather?q=ndele,cf&units=imperial&appid=InsertKey"
North Platte,US,41.12,-100.77,46.4,39,1,14.99,"http://api.openweathermap.org/data/2.5/weather?q=north platte,us&units=imperial&appid=InsertKey"
Brokopondo,SR,5.07,-54.97,78.8,88,20,5.82,"http://api.openweathermap.org/data/2.5/weather?q=brokopondo,sr&units=imperial&appid=InsertKey"
Mandali,IQ,33.75,45.55,40.21,74,0,3.24,"http://api.openweathermap.org/data/2.5/weather?q=mandali,iq&units=imperial&appid=InsertKey"
Alihe,CN,50.57,123.72,-30.22,47,0,2.57,"http://api.openweathermap.org/data/2.5/weather?q=alihe,cn&units=imperial&appid=InsertKey"
Ciudad Bolivar,VE,8.12,-63.55,76.34,91,8,9.28,"http://api.openweathermap.org/data/2.5/weather?q=ciudad bolivar,ve&units=imperial&appid=InsertKey"
Port Lincoln,AU,-34.73,135.87,64.73,90,36,10.45,"http://api.openweathermap.org/data/2.5/weather?q=port lincoln,au&units=imperial&appid=InsertKey"
El Penon,CO,8.99,-73.95,79.36,85,8,1.72,"http://api.openweathermap.org/data/2.5/weather?q=el penon,co&units=imperial&appid=InsertKey"
Peniche,PT,39.36,-9.38,55.4,100,75,2.24,"http://api.openweathermap.org/data/2.5/weather?q=peniche,pt&units=imperial&appid=InsertKey"
Binzhou,CN,37.37,118.02,23.06,75,80,3.91,"http://api.openweathermap.org/data/2.5/weather?q=binzhou,cn&units=imperial&appid=InsertKey"
Inuvik,CA,68.35,-133.72,7.16,92,90,5.82,"http://api.openweathermap.org/data/2.5/weather?q=inuvik,ca&units=imperial&appid=InsertKey"
Bani,DO,18.28,-70.33,82.4,69,40,6.93,"http://api.openweathermap.org/data/2.5/weather?q=bani,do&units=imperial&appid=InsertKey"
Avarua,CK,-21.21,-159.78,84.2,79,75,5.82,"http://api.openweathermap.org/data/2.5/weather?q=avarua,ck&units=imperial&appid=InsertKey"
Sitrah,BH,26.15,50.62,57.02,67,0,4.7,"http://api.openweathermap.org/data/2.5/weather?q=sitrah,bh&units=imperial&appid=InsertKey"
Elizabeth City,US,36.29,-76.25,34.56,43,1,13.87,"http://api.openweathermap.org/data/2.5/weather?q=elizabeth city,us&units=imperial&appid=InsertKey"
Sal Rei,CV,16.18,-22.92,71.6,64,75,18.34,"http://api.openweathermap.org/data/2.5/weather?q=sal rei,cv&units=imperial&appid=InsertKey"
Imbituba,BR,-28.24,-48.67,75.2,73,40,13.87,"http://api.openweathermap.org/data/2.5/weather?q=imbituba,br&units=imperial&appid=InsertKey"
Timizart,DZ,36.8,4.27,31.07,93,0,2.57,"http://api.openweathermap.org/data/2.5/weather?q=timizart,dz&units=imperial&appid=InsertKey"
Ust-Ilimsk,RU,58.0,102.66,-5.34,82,44,3.24,"http://api.openweathermap.org/data/2.5/weather?q=ust-ilimsk,ru&units=imperial&appid=InsertKey"
Bulolo,PG,-7.2,146.65,71.62,82,24,1.79,"http://api.openweathermap.org/data/2.5/weather?q=bulolo,pg&units=imperial&appid=InsertKey"
Bonavista,CA,48.65,-53.11,42.68,88,92,33.67,"http://api.openweathermap.org/data/2.5/weather?q=bonavista,ca&units=imperial&appid=InsertKey"
Provideniya,RU,64.38,-173.3,24.8,62,75,8.95,"http://api.openweathermap.org/data/2.5/weather?q=provideniya,ru&units=imperial&appid=InsertKey"
Bengkulu,ID,-3.8,102.27,73.64,100,92,11.34,"http://api.openweathermap.org/data/2.5/weather?q=bengkulu,id&units=imperial&appid=InsertKey"
Athens,US,33.96,-83.38,45.21,20,1,4.7,"http://api.openweathermap.org/data/2.5/weather?q=athens,us&units=imperial&appid=InsertKey"
Trairi,BR,-3.28,-39.27,81.79,99,20,15.59,"http://api.openweathermap.org/data/2.5/weather?q=trairi,br&units=imperial&appid=InsertKey"
San Policarpo,PH,12.18,125.51,76.7,100,92,23.71,"http://api.openweathermap.org/data/2.5/weather?q=san policarpo,ph&units=imperial&appid=InsertKey"
Baker City,US,44.77,-117.83,34.61,55,1,2.24,"http://api.openweathermap.org/data/2.5/weather?q=baker city,us&units=imperial&appid=InsertKey"
Wardenburg,DE,53.07,8.2,38.48,93,75,20.8,"http://api.openweathermap.org/data/2.5/weather?q=wardenburg,de&units=imperial&appid=InsertKey"
Shetpe,KZ,44.17,52.12,16.4,89,0,8.66,"http://api.openweathermap.org/data/2.5/weather?q=shetpe,kz&units=imperial&appid=InsertKey"
Touros,BR,-5.2,-35.46,79.94,84,92,11.18,"http://api.openweathermap.org/data/2.5/weather?q=touros,br&units=imperial&appid=InsertKey"
Bukama,CD,-9.2,25.85,69.01,99,76,2.62,"http://api.openweathermap.org/data/2.5/weather?q=bukama,cd&units=imperial&appid=InsertKey"
Dalbandin,PK,28.89,64.41,27.47,76,0,1.01,"http://api.openweathermap.org/data/2.5/weather?q=dalbandin,pk&units=imperial&appid=InsertKey"
Llanes,ES,43.42,-4.75,43.49,94,92,3.02,"http://api.openweathermap.org/data/2.5/weather?q=llanes,es&units=imperial&appid=InsertKey"
Terrace,CA,54.52,-128.6,35.6,100,90,4.7,"http://api.openweathermap.org/data/2.5/weather?q=terrace,ca&units=imperial&appid=InsertKey"
Sao Filipe,CV,14.9,-24.5,74.36,99,68,17.11,"http://api.openweathermap.org/data/2.5/weather?q=sao filipe,cv&units=imperial&appid=InsertKey"
Havoysund,NO,71.0,24.66,29.17,100,90,14.99,"http://api.openweathermap.org/data/2.5/weather?q=havoysund,no&units=imperial&appid=InsertKey"
Port-Cartier,CA,50.03,-66.87,30.2,92,90,12.75,"http://api.openweathermap.org/data/2.5/weather?q=port-cartier,ca&units=imperial&appid=InsertKey"
Pandan,PH,14.05,124.17,80.3,100,88,25.95,"http://api.openweathermap.org/data/2.5/weather?q=pandan,ph&units=imperial&appid=InsertKey"
Mizan Teferi,ET,6.98,35.58,56.36,75,0,2.28,"http://api.openweathermap.org/data/2.5/weather?q=mizan teferi,et&units=imperial&appid=InsertKey"
The Pas,CA,53.83,-101.25,17.6,78,90,9.17,"http://api.openweathermap.org/data/2.5/weather?q=the pas,ca&units=imperial&appid=InsertKey"
Katherine,AU,-14.47,132.27,80.6,74,0,5.82,"http://api.openweathermap.org/data/2.5/weather?q=katherine,au&units=imperial&appid=InsertKey"
Beira,MZ,-19.84,34.84,80.6,65,40,8.05,"http://api.openweathermap.org/data/2.5/weather?q=beira,mz&units=imperial&appid=InsertKey"
Wenling,CN,28.37,121.36,51.5,100,92,9.62,"http://api.openweathermap.org/data/2.5/weather?q=wenling,cn&units=imperial&appid=InsertKey"
Estreito,BR,-5.78,-43.25,73.46,94,44,3.51,"http://api.openweathermap.org/data/2.5/weather?q=estreito,br&units=imperial&appid=InsertKey"
Carutapera,BR,-1.2,-46.02,81.02,82,68,8.95,"http://api.openweathermap.org/data/2.5/weather?q=carutapera,br&units=imperial&appid=InsertKey"
Luderitz,NA,-26.65,15.16,66.2,48,0,23.04,"http://api.openweathermap.org/data/2.5/weather?q=luderitz,na&units=imperial&appid=InsertKey"
Olivet,FR,47.86,1.9,48.85,76,90,28.86,"http://api.openweathermap.org/data/2.5/weather?q=olivet,fr&units=imperial&appid=InsertKey"
Mount Gambier,AU,-37.83,140.77,67.25,63,0,6.26,"http://api.openweathermap.org/data/2.5/weather?q=mount gambier,au&units=imperial&appid=InsertKey"
Villiers,ZA,-27.03,28.6,52.67,52,0,2.84,"http://api.openweathermap.org/data/2.5/weather?q=villiers,za&units=imperial&appid=InsertKey"
Sitka,US,57.05,-135.33,47.79,81,90,17.22,"http://api.openweathermap.org/data/2.5/weather?q=sitka,us&units=imperial&appid=InsertKey"
Hamilton,BM,32.29,-64.78,66.2,63,75,28.86,"http://api.openweathermap.org/data/2.5/weather?q=hamilton,bm&units=imperial&appid=InsertKey"
Camana,PE,-16.62,-72.71,63.92,100,0,6.64,"http://api.openweathermap.org/data/2.5/weather?q=camana,pe&units=imperial&appid=InsertKey"
Urucui,BR,-7.23,-44.56,71.84,99,88,6.82,"http://api.openweathermap.org/data/2.5/weather?q=urucui,br&units=imperial&appid=InsertKey"
Bol,TD,13.46,14.71,75.8,28,0,12.41,"http://api.openweathermap.org/data/2.5/weather?q=bol,td&units=imperial&appid=InsertKey"
Asyut,EG,27.18,31.18,55.4,76,0,11.41,"http://api.openweathermap.org/data/2.5/weather?q=asyut,eg&units=imperial&appid=InsertKey"
Mangrol,IN,21.12,70.12,62.48,97,0,9.89,"http://api.openweathermap.org/data/2.5/weather?q=mangrol,in&units=imperial&appid=InsertKey"
Santona,ES,43.44,-3.46,54.39,93,92,16.11,"http://api.openweathermap.org/data/2.5/weather?q=santona,es&units=imperial&appid=InsertKey"
Meiringen,CH,46.73,8.18,33.46,86,75,3.36,"http://api.openweathermap.org/data/2.5/weather?q=meiringen,ch&units=imperial&appid=InsertKey"
Pisco,PE,-13.7,-76.22,71.6,73,0,23.04,"http://api.openweathermap.org/data/2.5/weather?q=pisco,pe&units=imperial&appid=InsertKey"
Touzim,CZ,50.06,12.99,33.96,89,90,5.82,"http://api.openweathermap.org/data/2.5/weather?q=touzim,cz&units=imperial&appid=InsertKey"
Manitouwadge,CA,49.12,-85.84,-5.81,76,75,10.29,"http://api.openweathermap.org/data/2.5/weather?q=manitouwadge,ca&units=imperial&appid=InsertKey"
Komsomolskiy,RU,43.98,46.7,45.02,93,92,20.24,"http://api.openweathermap.org/data/2.5/weather?q=komsomolskiy,ru&units=imperial&appid=InsertKey"
Kudat,MY,6.88,116.85,77.0,94,75,6.93,"http://api.openweathermap.org/data/2.5/weather?q=kudat,my&units=imperial&appid=InsertKey"
Gushikawa,JP,26.35,127.87,59.04,67,40,9.17,"http://api.openweathermap.org/data/2.5/weather?q=gushikawa,jp&units=imperial&appid=InsertKey"
Lorengau,PG,-2.02,147.27,80.57,100,92,11.45,"http://api.openweathermap.org/data/2.5/weather?q=lorengau,pg&units=imperial&appid=InsertKey"
Petauke,ZM,-14.24,31.33,67.57,98,92,1.34,"http://api.openweathermap.org/data/2.5/weather?q=petauke,zm&units=imperial&appid=InsertKey"
Oum Hadjer,TD,13.3,19.7,71.62,35,0,9.66,"http://api.openweathermap.org/data/2.5/weather?q=oum hadjer,td&units=imperial&appid=InsertKey"
Kwakoa,TZ,-3.77,37.72,65.41,81,0,3.29,"http://api.openweathermap.org/data/2.5/weather?q=kwakoa,tz&units=imperial&appid=InsertKey"
Havre,US,48.55,-109.68,37.4,55,75,16.11,"http://api.openweathermap.org/data/2.5/weather?q=havre,us&units=imperial&appid=InsertKey"
Republic,US,37.12,-93.48,54.75,32,1,9.17,"http://api.openweathermap.org/data/2.5/weather?q=republic,us&units=imperial&appid=InsertKey"
Sabaudia,IT,41.3,13.03,49.89,71,40,10.29,"http://api.openweathermap.org/data/2.5/weather?q=sabaudia,it&units=imperial&appid=InsertKey"
Stonewall,CA,50.13,-97.33,17.6,78,90,8.05,"http://api.openweathermap.org/data/2.5/weather?q=stonewall,ca&units=imperial&appid=InsertKey"
Arman,RU,59.7,150.17,-2.21,40,0,11.18,"http://api.openweathermap.org/data/2.5/weather?q=arman,ru&units=imperial&appid=InsertKey"
Teguldet,RU,57.31,88.17,8.93,80,88,6.26,"http://api.openweathermap.org/data/2.5/weather?q=teguldet,ru&units=imperial&appid=InsertKey"
Shabrovskiy,RU,56.64,60.58,-0.41,84,24,4.47,"http://api.openweathermap.org/data/2.5/weather?q=shabrovskiy,ru&units=imperial&appid=InsertKey"
Hofn,IS,64.25,-15.21,37.51,100,56,30.31,"http://api.openweathermap.org/data/2.5/weather?q=hofn,is&units=imperial&appid=InsertKey"
Laguna,BR,-28.48,-48.78,73.82,89,0,26.11,"http://api.openweathermap.org/data/2.5/weather?q=laguna,br&units=imperial&appid=InsertKey"
Klyuchi,RU,52.27,79.17,0.56,75,76,3.13,"http://api.openweathermap.org/data/2.5/weather?q=klyuchi,ru&units=imperial&appid=InsertKey"
Zonguldak,TR,41.25,31.83,43.36,97,36,5.93,"http://api.openweathermap.org/data/2.5/weather?q=zonguldak,tr&units=imperial&appid=InsertKey"
Bandundu,CD,-3.32,17.37,70.76,100,80,5.64,"http://api.openweathermap.org/data/2.5/weather?q=bandundu,cd&units=imperial&appid=InsertKey"
Sao Joao da Barra,BR,-21.64,-41.05,73.4,73,0,4.7,"http://api.openweathermap.org/data/2.5/weather?q=sao joao da barra,br&units=imperial&appid=InsertKey"
Ugoofaaru,MV,5.67,73.0,81.61,100,0,4.29,"http://api.openweathermap.org/data/2.5/weather?q=ugoofaaru,mv&units=imperial&appid=InsertKey"
Saint-Francois,GP,16.25,-61.27,78.8,74,0,3.36,"http://api.openweathermap.org/data/2.5/weather?q=saint-francois,gp&units=imperial&appid=InsertKey"
Pershotravneve,UA,51.39,28.87,28.01,87,88,3.06,"http://api.openweathermap.org/data/2.5/weather?q=pershotravneve,ua&units=imperial&appid=InsertKey"
Tabou,CI,4.42,-7.35,81.56,100,0,8.32,"http://api.openweathermap.org/data/2.5/weather?q=tabou,ci&units=imperial&appid=InsertKey"
Xining,CN,36.62,101.77,17.93,52,20,4.59,"http://api.openweathermap.org/data/2.5/weather?q=xining,cn&units=imperial&appid=InsertKey"
Sabha,JO,32.33,36.5,51.8,76,20,4.7,"http://api.openweathermap.org/data/2.5/weather?q=sabha,jo&units=imperial&appid=InsertKey"
Labuhan,ID,-6.88,112.21,80.3,100,76,7.31,"http://api.openweathermap.org/data/2.5/weather?q=labuhan,id&units=imperial&appid=InsertKey"
Roma,AU,-26.58,148.78,83.09,46,0,8.05,"http://api.openweathermap.org/data/2.5/weather?q=roma,au&units=imperial&appid=InsertKey"
Takoradi,GH,4.88,-1.76,79.72,100,20,5.3,"http://api.openweathermap.org/data/2.5/weather?q=takoradi,gh&units=imperial&appid=InsertKey"
Iskateley,RU,67.68,53.15,24.77,82,8,26.4,"http://api.openweathermap.org/data/2.5/weather?q=iskateley,ru&units=imperial&appid=InsertKey"
Sarankhola,BD,22.31,89.79,63.16,91,0,2.84,"http://api.openweathermap.org/data/2.5/weather?q=sarankhola,bd&units=imperial&appid=InsertKey"
Nouakchott,MR,18.09,-15.98,68.69,100,0,15.48,"http://api.openweathermap.org/data/2.5/weather?q=nouakchott,mr&units=imperial&appid=InsertKey"
Yaya,RU,56.21,86.44,7.31,86,88,9.44,"http://api.openweathermap.org/data/2.5/weather?q=yaya,ru&units=imperial&appid=InsertKey"
Mossendjo,CG,-2.95,12.73,69.05,99,92,2.35,"http://api.openweathermap.org/data/2.5/weather?q=mossendjo,cg&units=imperial&appid=InsertKey"
Kahului,US,20.89,-156.47,75.02,54,40,17.22,"http://api.openweathermap.org/data/2.5/weather?q=kahului,us&units=imperial&appid=InsertKey"
Powell,US,40.16,-83.08,27.86,54,90,13.87,"http://api.openweathermap.org/data/2.5/weather?q=powell,us&units=imperial&appid=InsertKey"
Pingdingshan,CN,33.74,113.3,32.56,98,92,9.33,"http://api.openweathermap.org/data/2.5/weather?q=pingdingshan,cn&units=imperial&appid=InsertKey"
Cap Malheureux,MU,-19.98,57.61,78.8,88,75,6.93,"http://api.openweathermap.org/data/2.5/weather?q=cap malheureux,mu&units=imperial&appid=InsertKey"
Gemena,CD,3.25,19.77,76.34,80,88,1.12,"http://api.openweathermap.org/data/2.5/weather?q=gemena,cd&units=imperial&appid=InsertKey"
Iralaya,HN,15.0,-83.23,75.2,73,90,12.19,"http://api.openweathermap.org/data/2.5/weather?q=iralaya,hn&units=imperial&appid=InsertKey"
Alyangula,AU,-13.85,136.42,87.19,95,0,4.14,"http://api.openweathermap.org/data/2.5/weather?q=alyangula,au&units=imperial&appid=InsertKey"
Buchanan,LR,5.88,-10.05,77.0,88,40,6.53,"http://api.openweathermap.org/data/2.5/weather?q=buchanan,lr&units=imperial&appid=InsertKey"
Westport,NZ,-41.75,171.6,65.41,74,20,2.91,"http://api.openweathermap.org/data/2.5/weather?q=westport,nz&units=imperial&appid=InsertKey"
Omsukchan,RU,62.53,155.8,-21.49,57,24,12.46,"http://api.openweathermap.org/data/2.5/weather?q=omsukchan,ru&units=imperial&appid=InsertKey"
Bambanglipuro,ID,-7.95,110.28,73.46,96,76,3.8,"http://api.openweathermap.org/data/2.5/weather?q=bambanglipuro,id&units=imperial&appid=InsertKey"
Kilindoni,TZ,-7.91,39.67,83.0,100,0,9.33,"http://api.openweathermap.org/data/2.5/weather?q=kilindoni,tz&units=imperial&appid=InsertKey"
Boende,CD,-0.22,20.87,73.64,97,20,3.74,"http://api.openweathermap.org/data/2.5/weather?q=boende,cd&units=imperial&appid=InsertKey"
Ponta do Sol,PT,32.67,-17.1,62.6,82,40,12.75,"http://api.openweathermap.org/data/2.5/weather?q=ponta do sol,pt&units=imperial&appid=InsertKey"
Yuryevets,RU,57.32,43.1,31.43,98,92,5.14,"http://api.openweathermap.org/data/2.5/weather?q=yuryevets,ru&units=imperial&appid=InsertKey"
Maragogi,BR,-9.01,-35.22,74.59,95,24,6.64,"http://api.openweathermap.org/data/2.5/weather?q=maragogi,br&units=imperial&appid=InsertKey"
Haikou,CN,20.05,110.34,71.6,94,40,8.95,"http://api.openweathermap.org/data/2.5/weather?q=haikou,cn&units=imperial&appid=InsertKey"
Diffa,NE,13.32,12.61,73.82,33,0,11.34,"http://api.openweathermap.org/data/2.5/weather?q=diffa,ne&units=imperial&appid=InsertKey"
Yining,CN,29.04,114.56,39.98,100,100,3.24,"http://api.openweathermap.org/data/2.5/weather?q=yining,cn&units=imperial&appid=InsertKey"
Teguise,ES,29.06,-13.56,60.8,72,20,14.99,"http://api.openweathermap.org/data/2.5/weather?q=teguise,es&units=imperial&appid=InsertKey"
Tautira,PF,-17.73,-149.15,87.8,66,20,13.87,"http://api.openweathermap.org/data/2.5/weather?q=tautira,pf&units=imperial&appid=InsertKey"
Voyvozh,RU,62.89,54.96,25.27,86,88,17.72,"http://api.openweathermap.org/data/2.5/weather?q=voyvozh,ru&units=imperial&appid=InsertKey"
Lima,PE,-12.04,-77.03,62.84,70,12,2.28,"http://api.openweathermap.org/data/2.5/weather?q=lima,pe&units=imperial&appid=InsertKey"
Chernyshevskiy,RU,63.01,112.47,-15.6,68,56,4.25,"http://api.openweathermap.org/data/2.5/weather?q=chernyshevskiy,ru&units=imperial&appid=InsertKey"
Verkhoyansk,RU,67.54,133.38,-53.67,0,24,2.57,"http://api.openweathermap.org/data/2.5/weather?q=verkhoyansk,ru&units=imperial&appid=InsertKey"
Severo-Kurilsk,RU,50.68,156.12,31.57,100,64,14.81,"http://api.openweathermap.org/data/2.5/weather?q=severo-kurilsk,ru&units=imperial&appid=InsertKey"
Port Blair,IN,11.67,92.75,82.24,100,36,7.87,"http://api.openweathermap.org/data/2.5/weather?q=port blair,in&units=imperial&appid=InsertKey"
Palu,ID,-0.89,119.87,80.62,91,44,5.03,"http://api.openweathermap.org/data/2.5/weather?q=palu,id&units=imperial&appid=InsertKey"
San Cristobal,EC,-0.9,-89.62,71.6,83,90,11.41,"http://api.openweathermap.org/data/2.5/weather?q=san cristobal,ec&units=imperial&appid=InsertKey"
Husum,DE,54.49,9.05,36.82,100,90,20.8,"http://api.openweathermap.org/data/2.5/weather?q=husum,de&units=imperial&appid=InsertKey"
Balkanabat,TM,39.51,54.37,20.86,87,12,5.41,"http://api.openweathermap.org/data/2.5/weather?q=balkanabat,tm&units=imperial&appid=InsertKey"
Hobyo,SO,5.35,48.53,74.36,87,0,15.93,"http://api.openweathermap.org/data/2.5/weather?q=hobyo,so&units=imperial&appid=InsertKey"
Neopolis,BR,-10.32,-36.58,77.56,82,92,11.3,"http://api.openweathermap.org/data/2.5/weather?q=neopolis,br&units=imperial&appid=InsertKey"
Rayachoti,IN,14.05,78.75,65.36,95,24,3.24,"http://api.openweathermap.org/data/2.5/weather?q=rayachoti,in&units=imperial&appid=InsertKey"
Ivanovka,RU,55.52,38.12,32.56,89,88,4.47,"http://api.openweathermap.org/data/2.5/weather?q=ivanovka,ru&units=imperial&appid=InsertKey"
Hokitika,NZ,-42.72,170.97,65.09,85,8,6.38,"http://api.openweathermap.org/data/2.5/weather?q=hokitika,nz&units=imperial&appid=InsertKey"
Cairns,AU,-16.92,145.77,84.2,58,20,13.87,"http://api.openweathermap.org/data/2.5/weather?q=cairns,au&units=imperial&appid=InsertKey"
Lavrentiya,RU,65.58,-171.0,27.61,100,68,16.71,"http://api.openweathermap.org/data/2.5/weather?q=lavrentiya,ru&units=imperial&appid=InsertKey"
Lakselv,NO,70.05,24.97,30.92,85,75,5.82,"http://api.openweathermap.org/data/2.5/weather?q=lakselv,no&units=imperial&appid=InsertKey"
Kigorobya,UG,1.62,31.31,77.87,100,0,0.49,"http://api.openweathermap.org/data/2.5/weather?q=kigorobya,ug&units=imperial&appid=InsertKey"
Pimentel,PE,-6.84,-79.93,69.8,77,40,19.46,"http://api.openweathermap.org/data/2.5/weather?q=pimentel,pe&units=imperial&appid=InsertKey"
Sangar,RU,63.92,127.47,-31.35,53,76,4.41,"http://api.openweathermap.org/data/2.5/weather?q=sangar,ru&units=imperial&appid=InsertKey"
Svetlaya,RU,46.54,138.33,24.32,100,68,7.83,"http://api.openweathermap.org/data/2.5/weather?q=svetlaya,ru&units=imperial&appid=InsertKey"
Kitimat,CA,54.05,-128.65,35.6,100,90,4.7,"http://api.openweathermap.org/data/2.5/weather?q=kitimat,ca&units=imperial&appid=InsertKey"
Eagle Pass,US,28.71,-100.5,60.8,44,75,4.7,"http://api.openweathermap.org/data/2.5/weather?q=eagle pass,us&units=imperial&appid=InsertKey"
Nantucket,US,41.28,-70.1,25.52,49,1,27.51,"http://api.openweathermap.org/data/2.5/weather?q=nantucket,us&units=imperial&appid=InsertKey"
Kattivakkam,IN,13.22,80.32,73.4,94,20,3.58,"http://api.openweathermap.org/data/2.5/weather?q=kattivakkam,in&units=imperial&appid=InsertKey"
Elbistan,TR,38.21,37.2,16.58,65,0,2.84,"http://api.openweathermap.org/data/2.5/weather?q=elbistan,tr&units=imperial&appid=InsertKey"
Litovko,RU,49.24,135.17,6.14,82,80,3.02,"http://api.openweathermap.org/data/2.5/weather?q=litovko,ru&units=imperial&appid=InsertKey"
Kapuskasing,CA,49.42,-82.43,-7.61,83,90,8.05,"http://api.openweathermap.org/data/2.5/weather?q=kapuskasing,ca&units=imperial&appid=InsertKey"
Abu Zabad,SD,12.35,29.25,60.64,57,0,10.85,"http://api.openweathermap.org/data/2.5/weather?q=abu zabad,sd&units=imperial&appid=InsertKey"
Fort Morgan,US,40.25,-103.8,47.59,21,90,12.75,"http://api.openweathermap.org/data/2.5/weather?q=fort morgan,us&units=imperial&appid=InsertKey"
Palmer,US,42.16,-72.33,22.55,57,40,27.51,"http://api.openweathermap.org/data/2.5/weather?q=palmer,us&units=imperial&appid=InsertKey"
Shenjiamen,CN,29.96,122.3,53.75,100,88,17.6,"http://api.openweathermap.org/data/2.5/weather?q=shenjiamen,cn&units=imperial&appid=InsertKey"
Netarhat,IN,23.48,84.27,51.41,90,8,2.39,"http://api.openweathermap.org/data/2.5/weather?q=netarhat,in&units=imperial&appid=InsertKey"
Pavino,RU,59.11,46.14,33.32,99,92,5.64,"http://api.openweathermap.org/data/2.5/weather?q=pavino,ru&units=imperial&appid=InsertKey"
Tuatapere,NZ,-46.13,167.68,60.37,93,32,0.56,"http://api.openweathermap.org/data/2.5/weather?q=tuatapere,nz&units=imperial&appid=InsertKey"
San Rafael,AR,-34.62,-68.33,72.52,20,0,14.09,"http://api.openweathermap.org/data/2.5/weather?q=san rafael,ar&units=imperial&appid=InsertKey"
Mogadishu,SO,2.04,45.34,79.54,100,0,19.73,"http://api.openweathermap.org/data/2.5/weather?q=mogadishu,so&units=imperial&appid=InsertKey"
Saint-Leu,RE,-21.15,55.28,77.0,73,0,4.7,"http://api.openweathermap.org/data/2.5/weather?q=saint-leu,re&units=imperial&appid=InsertKey"
Northam,AU,-31.67,116.67,66.2,55,0,13.87,"http://api.openweathermap.org/data/2.5/weather?q=northam,au&units=imperial&appid=InsertKey"
Biltine,TD,14.53,20.92,71.93,35,0,12.12,"http://api.openweathermap.org/data/2.5/weather?q=biltine,td&units=imperial&appid=InsertKey"
Maldonado,UY,-34.9,-54.95,77.0,57,0,8.05,"http://api.openweathermap.org/data/2.5/weather?q=maldonado,uy&units=imperial&appid=InsertKey"
Pierre,US,44.37,-100.35,39.2,60,1,14.99,"http://api.openweathermap.org/data/2.5/weather?q=pierre,us&units=imperial&appid=InsertKey"
Masingbi,SL,8.78,-11.95,77.69,76,36,2.39,"http://api.openweathermap.org/data/2.5/weather?q=masingbi,sl&units=imperial&appid=InsertKey"
Moree,AU,-29.47,149.85,81.34,58,0,10.85,"http://api.openweathermap.org/data/2.5/weather?q=moree,au&units=imperial&appid=InsertKey"
Whyalla,AU,-33.03,137.58,69.8,73,90,14.99,"http://api.openweathermap.org/data/2.5/weather?q=whyalla,au&units=imperial&appid=InsertKey"
San Carlos de Bariloche,AR,-41.15,-71.31,60.8,59,75,27.51,"http://api.openweathermap.org/data/2.5/weather?q=san carlos de bariloche,ar&units=imperial&appid=InsertKey"
Wattegama,LK,6.8,81.48,70.67,94,8,3.06,"http://api.openweathermap.org/data/2.5/weather?q=wattegama,lk&units=imperial&appid=InsertKey"
Katsuura,JP,35.13,140.3,41.0,35,20,13.87,"http://api.openweathermap.org/data/2.5/weather?q=katsuura,jp&units=imperial&appid=InsertKey"
Micheweni,TZ,-4.97,39.83,82.06,99,0,12.35,"http://api.openweathermap.org/data/2.5/weather?q=micheweni,tz&units=imperial&appid=InsertKey"
Sabha,LY,27.04,14.43,43.4,77,20,3.29,"http://api.openweathermap.org/data/2.5/weather?q=sabha,ly&units=imperial&appid=InsertKey"
Marawi,SD,18.48,31.82,67.84,57,0,11.97,"http://api.openweathermap.org/data/2.5/weather?q=marawi,sd&units=imperial&appid=InsertKey"
Samdari,IN,25.82,72.58,46.69,86,0,4.63,"http://api.openweathermap.org/data/2.5/weather?q=samdari,in&units=imperial&appid=InsertKey"
Chara,RU,56.91,118.26,-22.8,29,68,1.9,"http://api.openweathermap.org/data/2.5/weather?q=chara,ru&units=imperial&appid=InsertKey"
Kathmandu,NP,27.72,85.32,42.8,93,20,2.24,"http://api.openweathermap.org/data/2.5/weather?q=kathmandu,np&units=imperial&appid=InsertKey"
Salinopolis,BR,-0.61,-47.36,81.79,95,92,12.35,"http://api.openweathermap.org/data/2.5/weather?q=salinopolis,br&units=imperial&appid=InsertKey"
Bunia,CD,1.57,30.25,55.82,78,0,2.8,"http://api.openweathermap.org/data/2.5/weather?q=bunia,cd&units=imperial&appid=InsertKey"
Gusau,NG,12.16,6.66,74.14,39,44,9.78,"http://api.openweathermap.org/data/2.5/weather?q=gusau,ng&units=imperial&appid=InsertKey"
Vanimo,PG,-2.67,141.3,82.91,100,0,10.11,"http://api.openweathermap.org/data/2.5/weather?q=vanimo,pg&units=imperial&appid=InsertKey"
Tevaitoa,PF,-16.78,-151.5,82.01,100,20,6.15,"http://api.openweathermap.org/data/2.5/weather?q=tevaitoa,pf&units=imperial&appid=InsertKey"
Biala Podlaska,PL,52.03,23.12,22.12,79,0,5.3,"http://api.openweathermap.org/data/2.5/weather?q=biala podlaska,pl&units=imperial&appid=InsertKey"
Dickinson,US,29.46,-95.05,57.2,47,1,3.36,"http://api.openweathermap.org/data/2.5/weather?q=dickinson,us&units=imperial&appid=InsertKey"
Ixtapa,MX,20.7,-105.2,84.2,39,40,5.82,"http://api.openweathermap.org/data/2.5/weather?q=ixtapa,mx&units=imperial&appid=InsertKey"
Gazojak,TM,41.19,61.4,6.86,87,0,3.74,"http://api.openweathermap.org/data/2.5/weather?q=gazojak,tm&units=imperial&appid=InsertKey"
Lixourion,GR,38.2,20.43,59.06,100,56,8.88,"http://api.openweathermap.org/data/2.5/weather?q=lixourion,gr&units=imperial&appid=InsertKey"
Vostok,RU,46.49,135.88,0.11,72,80,2.91,"http://api.openweathermap.org/data/2.5/weather?q=vostok,ru&units=imperial&appid=InsertKey"
Kyabram,AU,-36.32,145.05,87.37,46,92,9.55,"http://api.openweathermap.org/data/2.5/weather?q=kyabram,au&units=imperial&appid=InsertKey"
Bilibino,RU,68.05,166.44,-13.12,77,80,3.4,"http://api.openweathermap.org/data/2.5/weather?q=bilibino,ru&units=imperial&appid=InsertKey"
Okahandja,NA,-21.98,16.92,69.8,26,0,3.36,"http://api.openweathermap.org/data/2.5/weather?q=okahandja,na&units=imperial&appid=InsertKey"
Dwarka,IN,22.24,68.97,68.11,100,0,9.06,"http://api.openweathermap.org/data/2.5/weather?q=dwarka,in&units=imperial&appid=InsertKey"
Magadan,RU,59.57,150.8,-2.21,40,0,11.18,"http://api.openweathermap.org/data/2.5/weather?q=magadan,ru&units=imperial&appid=InsertKey"
Scottsbluff,US,41.87,-103.67,48.83,28,1,17.22,"http://api.openweathermap.org/data/2.5/weather?q=scottsbluff,us&units=imperial&appid=InsertKey"
Grindavik,IS,63.84,-22.43,29.12,92,0,9.17,"http://api.openweathermap.org/data/2.5/weather?q=grindavik,is&units=imperial&appid=InsertKey"
Alice Springs,AU,-23.7,133.88,78.8,50,40,5.82,"http://api.openweathermap.org/data/2.5/weather?q=alice springs,au&units=imperial&appid=InsertKey"
Jieshi,CN,22.81,115.83,63.74,100,8,19.57,"http://api.openweathermap.org/data/2.5/weather?q=jieshi,cn&units=imperial&appid=InsertKey"
Tommot,RU,58.96,126.29,-39.0,77,20,2.84,"http://api.openweathermap.org/data/2.5/weather?q=tommot,ru&units=imperial&appid=InsertKey"
Ayan,RU,56.45,138.17,-12.04,100,0,8.84,"http://api.openweathermap.org/data/2.5/weather?q=ayan,ru&units=imperial&appid=InsertKey"
Aswan,EG,24.09,32.91,64.4,52,0,8.05,"http://api.openweathermap.org/data/2.5/weather?q=aswan,eg&units=imperial&appid=InsertKey"
Batagay,RU,67.63,134.63,-59.74,0,20,2.62,"http://api.openweathermap.org/data/2.5/weather?q=batagay,ru&units=imperial&appid=InsertKey"
Gelgaudiskis,LT,55.08,22.98,27.47,89,8,13.09,"http://api.openweathermap.org/data/2.5/weather?q=gelgaudiskis,lt&units=imperial&appid=InsertKey"
Stokmarknes,NO,68.56,14.91,28.4,92,40,4.7,"http://api.openweathermap.org/data/2.5/weather?q=stokmarknes,no&units=imperial&appid=InsertKey"
Torbat-e Jam,IR,35.24,60.62,18.29,91,12,3.62,"http://api.openweathermap.org/data/2.5/weather?q=torbat-e jam,ir&units=imperial&appid=InsertKey"
Jishu,CN,44.32,126.8,-17.62,77,0,6.82,"http://api.openweathermap.org/data/2.5/weather?q=jishu,cn&units=imperial&appid=InsertKey"
Kokopo,PG,-4.35,152.26,82.87,100,64,6.93,"http://api.openweathermap.org/data/2.5/weather?q=kokopo,pg&units=imperial&appid=InsertKey"
Haflong,IN,25.18,93.03,51.86,87,0,0.72,"http://api.openweathermap.org/data/2.5/weather?q=haflong,in&units=imperial&appid=InsertKey"
Toktogul,KG,41.87,72.94,3.31,85,0,2.73,"http://api.openweathermap.org/data/2.5/weather?q=toktogul,kg&units=imperial&appid=InsertKey"
Tarakan,ID,3.3,117.63,78.68,100,20,4.25,"http://api.openweathermap.org/data/2.5/weather?q=tarakan,id&units=imperial&appid=InsertKey"
Shimoda,JP,34.67,138.95,47.27,100,0,12.3,"http://api.openweathermap.org/data/2.5/weather?q=shimoda,jp&units=imperial&appid=InsertKey"
Kuah,MY,6.33,99.84,75.94,88,75,3.36,"http://api.openweathermap.org/data/2.5/weather?q=kuah,my&units=imperial&appid=InsertKey"
Cidreira,BR,-30.18,-50.21,72.38,74,0,13.35,"http://api.openweathermap.org/data/2.5/weather?q=cidreira,br&units=imperial&appid=InsertKey"
Borogontsy,RU,62.67,131.17,-36.07,69,80,3.85,"http://api.openweathermap.org/data/2.5/weather?q=borogontsy,ru&units=imperial&appid=InsertKey"
Hilton Head Island,US,32.22,-80.75,47.26,63,1,4.7,"http://api.openweathermap.org/data/2.5/weather?q=hilton head island,us&units=imperial&appid=InsertKey"
San Quintin,MX,30.48,-115.95,66.62,34,0,2.57,"http://api.openweathermap.org/data/2.5/weather?q=san quintin,mx&units=imperial&appid=InsertKey"
Botwood,CA,49.15,-55.35,37.4,100,90,16.11,"http://api.openweathermap.org/data/2.5/weather?q=botwood,ca&units=imperial&appid=InsertKey"
Sauda,NO,59.65,6.35,29.77,100,92,6.04,"http://api.openweathermap.org/data/2.5/weather?q=sauda,no&units=imperial&appid=InsertKey"
Cascais,PT,38.7,-9.42,55.4,100,75,2.24,"http://api.openweathermap.org/data/2.5/weather?q=cascais,pt&units=imperial&appid=InsertKey"
Yugorsk,RU,61.31,63.33,12.31,81,80,11.12,"http://api.openweathermap.org/data/2.5/weather?q=yugorsk,ru&units=imperial&appid=InsertKey"
Leshukonskoye,RU,64.9,45.76,29.63,75,64,11.34,"http://api.openweathermap.org/data/2.5/weather?q=leshukonskoye,ru&units=imperial&appid=InsertKey"
Oksfjord,NO,70.24,22.35,34.66,100,75,13.87,"http://api.openweathermap.org/data/2.5/weather?q=oksfjord,no&units=imperial&appid=InsertKey"
Mapiripan,CO,2.89,-72.13,80.26,73,56,3.8,"http://api.openweathermap.org/data/2.5/weather?q=mapiripan,co&units=imperial&appid=InsertKey"
Duiwelskloof,ZA,-23.69,30.14,62.84,79,0,0.56,"http://api.openweathermap.org/data/2.5/weather?q=duiwelskloof,za&units=imperial&appid=InsertKey"
Batagay-Alyta,RU,67.8,130.41,-48.9,0,12,2.62,"http://api.openweathermap.org/data/2.5/weather?q=batagay-alyta,ru&units=imperial&appid=InsertKey"
Ketchikan,US,55.34,-131.65,47.62,93,90,10.29,"http://api.openweathermap.org/data/2.5/weather?q=ketchikan,us&units=imperial&appid=InsertKey"
Vinh,VN,18.67,105.67,65.09,100,92,7.09,"http://api.openweathermap.org/data/2.5/weather?q=vinh,vn&units=imperial&appid=InsertKey"
Agadez,NE,19.75,10.25,58.97,31,36,6.38,"http://api.openweathermap.org/data/2.5/weather?q=agadez,ne&units=imperial&appid=InsertKey"
Jingcheng,CN,32.01,120.26,41.92,97,92,13.58,"http://api.openweathermap.org/data/2.5/weather?q=jingcheng,cn&units=imperial&appid=InsertKey"
Baghpat,IN,28.95,77.22,53.6,100,90,8.05,"http://api.openweathermap.org/data/2.5/weather?q=baghpat,in&units=imperial&appid=InsertKey"
Pak Phanang,TH,8.35,100.2,75.62,100,0,4.29,"http://api.openweathermap.org/data/2.5/weather?q=pak phanang,th&units=imperial&appid=InsertKey"
Wanning,CN,18.8,110.4,74.27,100,100,11.86,"http://api.openweathermap.org/data/2.5/weather?q=wanning,cn&units=imperial&appid=InsertKey"
Gayeri,BF,12.65,0.49,74.14,54,56,5.75,"http://api.openweathermap.org/data/2.5/weather?q=gayeri,bf&units=imperial&appid=InsertKey"
Terney,RU,45.05,136.61,14.15,100,56,12.91,"http://api.openweathermap.org/data/2.5/weather?q=terney,ru&units=imperial&appid=InsertKey"
Realeza,BR,-25.77,-53.53,77.02,57,0,4.85,"http://api.openweathermap.org/data/2.5/weather?q=realeza,br&units=imperial&appid=InsertKey"
Port Pirie,AU,-33.18,138.02,69.8,73,90,14.99,"http://api.openweathermap.org/data/2.5/weather?q=port pirie,au&units=imperial&appid=InsertKey"
Hollola,FI,61.03,25.38,35.48,86,88,11.45,"http://api.openweathermap.org/data/2.5/weather?q=hollola,fi&units=imperial&appid=InsertKey"
Manado,ID,1.49,124.85,78.8,94,20,2.24,"http://api.openweathermap.org/data/2.5/weather?q=manado,id&units=imperial&appid=InsertKey"
Yertsevo,RU,60.8,40.09,22.34,86,0,11.07,"http://api.openweathermap.org/data/2.5/weather?q=yertsevo,ru&units=imperial&appid=InsertKey"
Along,IN,28.17,94.77,50.69,97,0,1.79,"http://api.openweathermap.org/data/2.5/weather?q=along,in&units=imperial&appid=InsertKey"
Ocean City,US,39.28,-74.57,28.4,39,1,11.41,"http://api.openweathermap.org/data/2.5/weather?q=ocean city,us&units=imperial&appid=InsertKey"
Asbury Park,US,40.22,-74.01,27.39,45,1,11.41,"http://api.openweathermap.org/data/2.5/weather?q=asbury park,us&units=imperial&appid=InsertKey"
Hohhot,CN,40.81,111.65,17.6,52,40,4.47,"http://api.openweathermap.org/data/2.5/weather?q=hohhot,cn&units=imperial&appid=InsertKey"
Melfi,TD,11.06,17.94,68.24,35,8,7.43,"http://api.openweathermap.org/data/2.5/weather?q=melfi,td&units=imperial&appid=InsertKey"
Kargasok,RU,59.06,80.86,6.95,80,48,4.81,"http://api.openweathermap.org/data/2.5/weather?q=kargasok,ru&units=imperial&appid=InsertKey"
Ko Samui,TH,9.54,99.94,75.2,94,20,4.14,"http://api.openweathermap.org/data/2.5/weather?q=ko samui,th&units=imperial&appid=InsertKey"
