City,Country Code,Latitude,Longitude,Temperature,Humidity,Cloudiness,Wind Speed,URL
Zatoka,UA,46.07,30.47,35.6,100,90,4.47,"http://api.openweathermap.org/data/2.5/weather?q=zatoka,ua&units=imperial&appid=InsertKey"
Kruisfontein,ZA,-34.0,24.73,61.09,91,100,12.68,"http://api.openweathermap.org/data/2.5/weather?q=kruisfontein,za&units=imperial&appid=InsertKey"
Minuri,PH,16.54,121.86,69.82,100,100,6.53,"http://api.openweathermap.org/data/2.5/weather?q=minuri,ph&units=imperial&appid=InsertKey"
Thompson,CA,55.74,-97.86,-0.41,77,90,3.27,"http://api.openweathermap.org/data/2.5/weather?q=thompson,ca&units=imperial&appid=InsertKey"
Ushuaia,AR,-54.8,-68.3,60.8,38,40,11.41,"http://api.openweathermap.org/data/2.5/weather?q=ushuaia,ar&units=imperial&appid=InsertKey"
Flinders,AU,-34.58,150.86,89.6,29,0,10.29,"http://api.openweathermap.org/data/2.5/weather?q=flinders,au&units=imperial&appid=InsertKey"
Cape Town,ZA,-33.93,18.42,59.0,93,75,4.7,"http://api.openweathermap.org/data/2.5/weather?q=cape town,za&units=imperial&appid=InsertKey"
Porto Santo,PT,33.07,-16.34,62.6,77,40,6.93,"http://api.openweathermap.org/data/2.5/weather?q=porto santo,pt&units=imperial&appid=InsertKey"
Mabaruma,GY,8.2,-59.78,80.3,84,92,8.55,"http://api.openweathermap.org/data/2.5/weather?q=mabaruma,gy&units=imperial&appid=InsertKey"
Puerto Ayora,EC,-0.74,-90.35,77.0,61,20,19.46,"http://api.openweathermap.org/data/2.5/weather?q=puerto ayora,ec&units=imperial&appid=InsertKey"
Lincoln,AR,-34.87,-61.53,67.66,91,20,12.12,"http://api.openweathermap.org/data/2.5/weather?q=lincoln,ar&units=imperial&appid=InsertKey"
Gornopravdinsk,RU,60.05,69.9,1.42,72,0,12.91,"http://api.openweathermap.org/data/2.5/weather?q=gornopravdinsk,ru&units=imperial&appid=InsertKey"
Khatanga,RU,71.97,102.5,-41.99,0,20,3.6,"http://api.openweathermap.org/data/2.5/weather?q=khatanga,ru&units=imperial&appid=InsertKey"
Arraial do Cabo,BR,-22.97,-42.03,72.38,93,24,12.57,"http://api.openweathermap.org/data/2.5/weather?q=arraial do cabo,br&units=imperial&appid=InsertKey"
Yellowknife,CA,62.46,-114.35,15.8,92,90,10.29,"http://api.openweathermap.org/data/2.5/weather?q=yellowknife,ca&units=imperial&appid=InsertKey"
Itoman,JP,26.12,127.67,59.56,51,75,11.41,"http://api.openweathermap.org/data/2.5/weather?q=itoman,jp&units=imperial&appid=InsertKey"
Olonets,RU,60.98,32.97,31.57,89,92,11.34,"http://api.openweathermap.org/data/2.5/weather?q=olonets,ru&units=imperial&appid=InsertKey"
Meulaboh,ID,4.14,96.13,75.22,100,92,6.38,"http://api.openweathermap.org/data/2.5/weather?q=meulaboh,id&units=imperial&appid=InsertKey"
El Cope,PA,8.62,-80.6,75.76,90,24,12.35,"http://api.openweathermap.org/data/2.5/weather?q=el cope,pa&units=imperial&appid=InsertKey"
Deniliquin,AU,-35.53,144.97,93.94,27,92,13.13,"http://api.openweathermap.org/data/2.5/weather?q=deniliquin,au&units=imperial&appid=InsertKey"
Bambous Virieux,MU,-20.34,57.76,78.8,88,75,6.93,"http://api.openweathermap.org/data/2.5/weather?q=bambous virieux,mu&units=imperial&appid=InsertKey"
Atuona,PF,-9.8,-139.03,79.74,100,44,10.54,"http://api.openweathermap.org/data/2.5/weather?q=atuona,pf&units=imperial&appid=InsertKey"
Kaka,TM,37.35,59.61,21.35,78,0,2.62,"http://api.openweathermap.org/data/2.5/weather?q=kaka,tm&units=imperial&appid=InsertKey"
Dikson,RU,73.51,80.55,-8.24,100,92,21.61,"http://api.openweathermap.org/data/2.5/weather?q=dikson,ru&units=imperial&appid=InsertKey"
Castro,CL,-42.47,-73.77,56.2,98,92,9.75,"http://api.openweathermap.org/data/2.5/weather?q=castro,cl&units=imperial&appid=InsertKey"
Karpathos,GR,35.51,27.21,60.8,72,0,16.11,"http://api.openweathermap.org/data/2.5/weather?q=karpathos,gr&units=imperial&appid=InsertKey"
Ilhabela,BR,-23.78,-45.36,73.01,100,12,19.62,"http://api.openweathermap.org/data/2.5/weather?q=ilhabela,br&units=imperial&appid=InsertKey"
Bluff,NZ,-46.6,168.33,54.13,100,24,10.76,"http://api.openweathermap.org/data/2.5/weather?q=bluff,nz&units=imperial&appid=InsertKey"
Hermanus,ZA,-34.42,19.23,57.37,96,92,2.82,"http://api.openweathermap.org/data/2.5/weather?q=hermanus,za&units=imperial&appid=InsertKey"
Hilo,US,19.73,-155.09,67.17,73,40,12.75,"http://api.openweathermap.org/data/2.5/weather?q=hilo,us&units=imperial&appid=InsertKey"
Mar del Plata,AR,-38.0,-57.56,69.8,73,75,6.93,"http://api.openweathermap.org/data/2.5/weather?q=mar del plata,ar&units=imperial&appid=InsertKey"
Aykhal,RU,66.0,111.5,-24.37,69,64,3.02,"http://api.openweathermap.org/data/2.5/weather?q=aykhal,ru&units=imperial&appid=InsertKey"
Barrow,US,71.29,-156.79,5.0,77,90,32.21,"http://api.openweathermap.org/data/2.5/weather?q=barrow,us&units=imperial&appid=InsertKey"
Alingsas,SE,57.93,12.53,33.89,95,90,12.75,"http://api.openweathermap.org/data/2.5/weather?q=alingsas,se&units=imperial&appid=InsertKey"
Ballina,IE,54.12,-9.17,41.33,97,64,21.25,"http://api.openweathermap.org/data/2.5/weather?q=ballina,ie&units=imperial&appid=InsertKey"
Pandamatenga,BW,-18.53,25.63,65.45,93,32,3.4,"http://api.openweathermap.org/data/2.5/weather?q=pandamatenga,bw&units=imperial&appid=InsertKey"
Rikitea,PF,-23.12,-134.97,76.09,100,12,15.01,"http://api.openweathermap.org/data/2.5/weather?q=rikitea,pf&units=imperial&appid=InsertKey"
Tuktoyaktuk,CA,69.45,-133.04,-0.41,84,20,14.99,"http://api.openweathermap.org/data/2.5/weather?q=tuktoyaktuk,ca&units=imperial&appid=InsertKey"
Bethel,US,41.37,-73.41,25.61,38,1,9.17,"http://api.openweathermap.org/data/2.5/weather?q=bethel,us&units=imperial&appid=InsertKey"
Matagami,CA,49.75,-77.63,-2.21,77,20,14.99,"http://api.openweathermap.org/data/2.5/weather?q=matagami,ca&units=imperial&appid=InsertKey"
Albany,AU,-35.02,117.89,60.66,87,88,4.94,"http://api.openweathermap.org/data/2.5/weather?q=albany,au&units=imperial&appid=InsertKey"
Lamu,KE,-2.27,40.9,78.37,94,12,11.63,"http://api.openweathermap.org/data/2.5/weather?q=lamu,ke&units=imperial&appid=InsertKey"
Santa Lucia,ES,27.91,-15.54,64.4,68,40,21.92,"http://api.openweathermap.org/data/2.5/weather?q=santa lucia,es&units=imperial&appid=InsertKey"
Hofn,IS,64.25,-15.21,37.51,100,56,30.31,"http://api.openweathermap.org/data/2.5/weather?q=hofn,is&units=imperial&appid=InsertKey"
Portland,AU,-38.33,141.6,61.58,100,56,11.34,"http://api.openweathermap.org/data/2.5/weather?q=portland,au&units=imperial&appid=InsertKey"
Tiznit,MA,29.58,-9.5,37.46,67,0,3.74,"http://api.openweathermap.org/data/2.5/weather?q=tiznit,ma&units=imperial&appid=InsertKey"
Tuatapere,NZ,-46.13,167.68,60.37,93,32,0.56,"http://api.openweathermap.org/data/2.5/weather?q=tuatapere,nz&units=imperial&appid=InsertKey"
Severo-Kurilsk,RU,50.68,156.12,31.36,100,88,15.9,"http://api.openweathermap.org/data/2.5/weather?q=severo-kurilsk,ru&units=imperial&appid=InsertKey"
Butaritari,KI,3.07,172.79,83.02,100,56,14.79,"http://api.openweathermap.org/data/2.5/weather?q=butaritari,ki&units=imperial&appid=InsertKey"
Hithadhoo,MV,-0.6,73.08,81.76,100,44,7.74,"http://api.openweathermap.org/data/2.5/weather?q=hithadhoo,mv&units=imperial&appid=InsertKey"
New Norfolk,AU,-42.78,147.06,71.6,56,40,5.82,"http://api.openweathermap.org/data/2.5/weather?q=new norfolk,au&units=imperial&appid=InsertKey"
Tura,RU,64.28,100.25,-25.99,39,24,2.28,"http://api.openweathermap.org/data/2.5/weather?q=tura,ru&units=imperial&appid=InsertKey"
Cockburn Town,TC,21.46,-71.14,76.07,100,80,15.21,"http://api.openweathermap.org/data/2.5/weather?q=cockburn town,tc&units=imperial&appid=InsertKey"
Vaini,TO,-21.2,-175.2,78.8,65,40,1.12,"http://api.openweathermap.org/data/2.5/weather?q=vaini,to&units=imperial&appid=InsertKey"
Kapaa,US,22.08,-159.32,74.39,56,75,21.92,"http://api.openweathermap.org/data/2.5/weather?q=kapaa,us&units=imperial&appid=InsertKey"
Port Alfred,ZA,-33.59,26.89,67.27,81,0,28.77,"http://api.openweathermap.org/data/2.5/weather?q=port alfred,za&units=imperial&appid=InsertKey"
Kalanwali,IN,29.85,74.95,45.61,90,0,5.53,"http://api.openweathermap.org/data/2.5/weather?q=kalanwali,in&units=imperial&appid=InsertKey"
Koumra,TD,8.91,17.55,66.71,51,0,2.84,"http://api.openweathermap.org/data/2.5/weather?q=koumra,td&units=imperial&appid=InsertKey"
Pangnirtung,CA,66.15,-65.71,8.6,71,90,2.24,"http://api.openweathermap.org/data/2.5/weather?q=pangnirtung,ca&units=imperial&appid=InsertKey"
Warmbad,NA,-28.45,18.73,59.24,52,0,8.77,"http://api.openweathermap.org/data/2.5/weather?q=warmbad,na&units=imperial&appid=InsertKey"
Paamiut,GL,61.99,-49.67,27.83,93,20,10.67,"http://api.openweathermap.org/data/2.5/weather?q=paamiut,gl&units=imperial&appid=InsertKey"
Longyearbyen,SJ,78.22,15.64,32.0,90,75,19.46,"http://api.openweathermap.org/data/2.5/weather?q=longyearbyen,sj&units=imperial&appid=InsertKey"
Uhlove,UA,44.82,33.6,49.25,96,12,13.31,"http://api.openweathermap.org/data/2.5/weather?q=uhlove,ua&units=imperial&appid=InsertKey"
Avarua,CK,-21.21,-159.78,82.4,78,75,5.82,"http://api.openweathermap.org/data/2.5/weather?q=avarua,ck&units=imperial&appid=InsertKey"
Ambovombe,MG,-25.17,46.08,74.41,89,92,2.51,"http://api.openweathermap.org/data/2.5/weather?q=ambovombe,mg&units=imperial&appid=InsertKey"
Hobart,AU,-42.88,147.33,71.6,56,40,5.82,"http://api.openweathermap.org/data/2.5/weather?q=hobart,au&units=imperial&appid=InsertKey"
Cockburn Town,BS,24.03,-74.52,74.36,100,0,7.16,"http://api.openweathermap.org/data/2.5/weather?q=cockburn town,bs&units=imperial&appid=InsertKey"
Wuwei,CN,37.93,102.64,-2.14,56,0,3.13,"http://api.openweathermap.org/data/2.5/weather?q=wuwei,cn&units=imperial&appid=InsertKey"
East London,ZA,-33.02,27.91,67.07,100,92,29.19,"http://api.openweathermap.org/data/2.5/weather?q=east london,za&units=imperial&appid=InsertKey"
Carutapera,BR,-1.2,-46.02,81.02,82,68,8.95,"http://api.openweathermap.org/data/2.5/weather?q=carutapera,br&units=imperial&appid=InsertKey"
Qaanaaq,GL,77.48,-69.36,12.37,89,76,5.39,"http://api.openweathermap.org/data/2.5/weather?q=qaanaaq,gl&units=imperial&appid=InsertKey"
Saldanha,ZA,-33.01,17.94,60.8,82,80,2.24,"http://api.openweathermap.org/data/2.5/weather?q=saldanha,za&units=imperial&appid=InsertKey"
Santiago del Estero,AR,-27.8,-64.26,74.32,89,56,16.82,"http://api.openweathermap.org/data/2.5/weather?q=santiago del estero,ar&units=imperial&appid=InsertKey"
Sioux Lookout,CA,50.1,-91.92,7.12,84,20,2.24,"http://api.openweathermap.org/data/2.5/weather?q=sioux lookout,ca&units=imperial&appid=InsertKey"
Torbay,CA,47.67,-52.73,41.0,100,90,20.8,"http://api.openweathermap.org/data/2.5/weather?q=torbay,ca&units=imperial&appid=InsertKey"
Lavrentiya,RU,65.58,-171.0,27.61,100,68,16.71,"http://api.openweathermap.org/data/2.5/weather?q=lavrentiya,ru&units=imperial&appid=InsertKey"
Piacabucu,BR,-10.41,-36.43,77.56,82,92,11.3,"http://api.openweathermap.org/data/2.5/weather?q=piacabucu,br&units=imperial&appid=InsertKey"
Marsh Harbour,BS,26.54,-77.06,70.76,100,0,9.44,"http://api.openweathermap.org/data/2.5/weather?q=marsh harbour,bs&units=imperial&appid=InsertKey"
Kendari,ID,-3.94,122.5,82.55,79,12,6.6,"http://api.openweathermap.org/data/2.5/weather?q=kendari,id&units=imperial&appid=InsertKey"
Korcula,HR,42.96,17.14,48.2,100,75,3.36,"http://api.openweathermap.org/data/2.5/weather?q=korcula,hr&units=imperial&appid=InsertKey"
Ribeira Grande,PT,38.52,-28.7,64.4,77,75,10.29,"http://api.openweathermap.org/data/2.5/weather?q=ribeira grande,pt&units=imperial&appid=InsertKey"
Iqaluit,CA,63.75,-68.51,10.4,60,75,4.7,"http://api.openweathermap.org/data/2.5/weather?q=iqaluit,ca&units=imperial&appid=InsertKey"
Ormara,PK,25.21,64.64,61.04,98,0,10.96,"http://api.openweathermap.org/data/2.5/weather?q=ormara,pk&units=imperial&appid=InsertKey"
Upernavik,GL,72.79,-56.15,23.02,100,80,4.85,"http://api.openweathermap.org/data/2.5/weather?q=upernavik,gl&units=imperial&appid=InsertKey"
Nanortalik,GL,60.14,-45.24,27.52,100,8,29.42,"http://api.openweathermap.org/data/2.5/weather?q=nanortalik,gl&units=imperial&appid=InsertKey"
Karratha,AU,-20.74,116.85,82.1,68,0,5.08,"http://api.openweathermap.org/data/2.5/weather?q=karratha,au&units=imperial&appid=InsertKey"
Manicore,BR,-5.81,-61.3,74.99,95,36,1.79,"http://api.openweathermap.org/data/2.5/weather?q=manicore,br&units=imperial&appid=InsertKey"
Ancud,CL,-41.87,-73.82,56.29,99,92,10.87,"http://api.openweathermap.org/data/2.5/weather?q=ancud,cl&units=imperial&appid=InsertKey"
Yvetot,FR,49.62,0.76,44.01,93,24,21.92,"http://api.openweathermap.org/data/2.5/weather?q=yvetot,fr&units=imperial&appid=InsertKey"
Dehloran,IR,32.69,47.27,40.12,71,0,6.04,"http://api.openweathermap.org/data/2.5/weather?q=dehloran,ir&units=imperial&appid=InsertKey"
Kavieng,PG,-2.57,150.8,81.4,100,88,10.87,"http://api.openweathermap.org/data/2.5/weather?q=kavieng,pg&units=imperial&appid=InsertKey"
Batagay,RU,67.63,134.63,-59.74,0,20,2.62,"http://api.openweathermap.org/data/2.5/weather?q=batagay,ru&units=imperial&appid=InsertKey"
Novoagansk,RU,61.94,76.66,7.22,87,64,8.28,"http://api.openweathermap.org/data/2.5/weather?q=novoagansk,ru&units=imperial&appid=InsertKey"
Kawalu,ID,-7.38,108.21,69.19,95,44,2.35,"http://api.openweathermap.org/data/2.5/weather?q=kawalu,id&units=imperial&appid=InsertKey"
Pisco,PE,-13.7,-76.22,71.6,73,0,23.04,"http://api.openweathermap.org/data/2.5/weather?q=pisco,pe&units=imperial&appid=InsertKey"
Kashi,CN,39.45,75.98,24.8,58,8,6.71,"http://api.openweathermap.org/data/2.5/weather?q=kashi,cn&units=imperial&appid=InsertKey"
Mahibadhoo,MV,3.78,72.97,81.29,100,0,5.41,"http://api.openweathermap.org/data/2.5/weather?q=mahibadhoo,mv&units=imperial&appid=InsertKey"
Sitka,US,57.05,-135.33,47.89,81,90,17.22,"http://api.openweathermap.org/data/2.5/weather?q=sitka,us&units=imperial&appid=InsertKey"
Valparaiso,CL,-33.04,-71.63,69.8,60,0,8.05,"http://api.openweathermap.org/data/2.5/weather?q=valparaiso,cl&units=imperial&appid=InsertKey"
Progreso,MX,21.28,-89.67,78.8,44,75,4.25,"http://api.openweathermap.org/data/2.5/weather?q=progreso,mx&units=imperial&appid=InsertKey"
Mount Isa,AU,-20.73,139.5,87.8,40,0,10.45,"http://api.openweathermap.org/data/2.5/weather?q=mount isa,au&units=imperial&appid=InsertKey"
Shizukuishi,JP,39.68,140.98,33.8,72,75,4.7,"http://api.openweathermap.org/data/2.5/weather?q=shizukuishi,jp&units=imperial&appid=InsertKey"
Cubuk,TR,40.24,33.03,33.8,86,76,4.7,"http://api.openweathermap.org/data/2.5/weather?q=cubuk,tr&units=imperial&appid=InsertKey"
Vanimo,PG,-2.67,141.3,82.91,100,0,10.11,"http://api.openweathermap.org/data/2.5/weather?q=vanimo,pg&units=imperial&appid=InsertKey"
Punta Arenas,CL,-53.15,-70.92,59.0,54,75,32.21,"http://api.openweathermap.org/data/2.5/weather?q=punta arenas,cl&units=imperial&appid=InsertKey"
Benemerito de las Americas,MX,16.52,-90.64,66.76,78,0,2.28,"http://api.openweathermap.org/data/2.5/weather?q=benemerito de las americas,mx&units=imperial&appid=InsertKey"
Anchorage,US,61.22,-149.9,40.98,74,1,13.87,"http://api.openweathermap.org/data/2.5/weather?q=anchorage,us&units=imperial&appid=InsertKey"
Sangar,RU,63.92,127.47,-31.35,53,76,4.41,"http://api.openweathermap.org/data/2.5/weather?q=sangar,ru&units=imperial&appid=InsertKey"
Chippewa Falls,US,44.94,-91.39,20.3,73,75,5.82,"http://api.openweathermap.org/data/2.5/weather?q=chippewa falls,us&units=imperial&appid=InsertKey"
Walvis Bay,NA,-22.96,14.51,57.2,76,0,1.12,"http://api.openweathermap.org/data/2.5/weather?q=walvis bay,na&units=imperial&appid=InsertKey"
San Patricio,MX,19.22,-104.7,84.2,66,40,6.93,"http://api.openweathermap.org/data/2.5/weather?q=san patricio,mx&units=imperial&appid=InsertKey"
Pilar,PH,14.66,120.57,76.98,69,75,10.29,"http://api.openweathermap.org/data/2.5/weather?q=pilar,ph&units=imperial&appid=InsertKey"
Christchurch,GB,50.73,-1.78,39.54,75,75,17.22,"http://api.openweathermap.org/data/2.5/weather?q=christchurch,gb&units=imperial&appid=InsertKey"
Busselton,AU,-33.65,115.33,63.85,100,100,7.4,"http://api.openweathermap.org/data/2.5/weather?q=busselton,au&units=imperial&appid=InsertKey"
Hambantota,LK,6.12,81.12,75.8,100,0,3.85,"http://api.openweathermap.org/data/2.5/weather?q=hambantota,lk&units=imperial&appid=InsertKey"
Monkton,GB,55.5,-4.6,34.63,100,40,4.7,"http://api.openweathermap.org/data/2.5/weather?q=monkton,gb&units=imperial&appid=InsertKey"
Vuktyl,RU,63.86,57.31,23.42,78,80,12.19,"http://api.openweathermap.org/data/2.5/weather?q=vuktyl,ru&units=imperial&appid=InsertKey"
Plettenberg Bay,ZA,-34.05,23.37,61.58,96,44,13.2,"http://api.openweathermap.org/data/2.5/weather?q=plettenberg bay,za&units=imperial&appid=InsertKey"
Matara,LK,5.95,80.54,73.87,100,0,3.24,"http://api.openweathermap.org/data/2.5/weather?q=matara,lk&units=imperial&appid=InsertKey"
Komsomolskiy,RU,43.98,46.7,45.02,93,92,20.24,"http://api.openweathermap.org/data/2.5/weather?q=komsomolskiy,ru&units=imperial&appid=InsertKey"
Beloslav,BG,43.18,27.7,46.4,75,0,1.12,"http://api.openweathermap.org/data/2.5/weather?q=beloslav,bg&units=imperial&appid=InsertKey"
Ojinaga,MX,29.57,-104.42,56.45,35,0,2.73,"http://api.openweathermap.org/data/2.5/weather?q=ojinaga,mx&units=imperial&appid=InsertKey"
Klaeng,TH,12.78,101.65,78.77,100,76,4.63,"http://api.openweathermap.org/data/2.5/weather?q=klaeng,th&units=imperial&appid=InsertKey"
Treinta y Tres,UY,-33.23,-54.38,82.91,40,88,7.38,"http://api.openweathermap.org/data/2.5/weather?q=treinta y tres,uy&units=imperial&appid=InsertKey"
Dali,CN,25.7,100.18,33.19,100,0,1.83,"http://api.openweathermap.org/data/2.5/weather?q=dali,cn&units=imperial&appid=InsertKey"
Lorengau,PG,-2.02,147.27,80.57,100,92,11.45,"http://api.openweathermap.org/data/2.5/weather?q=lorengau,pg&units=imperial&appid=InsertKey"
Georgetown,SH,-7.93,-14.42,73.4,94,75,14.99,"http://api.openweathermap.org/data/2.5/weather?q=georgetown,sh&units=imperial&appid=InsertKey"
Jamestown,SH,-15.94,-5.72,69.97,100,0,12.77,"http://api.openweathermap.org/data/2.5/weather?q=jamestown,sh&units=imperial&appid=InsertKey"
Port Elizabeth,ZA,-33.92,25.57,62.6,82,20,20.8,"http://api.openweathermap.org/data/2.5/weather?q=port elizabeth,za&units=imperial&appid=InsertKey"
Taltal,CL,-25.4,-70.48,61.49,62,0,2.57,"http://api.openweathermap.org/data/2.5/weather?q=taltal,cl&units=imperial&appid=InsertKey"
San Antonio,CL,-33.59,-71.62,62.89,86,0,3.06,"http://api.openweathermap.org/data/2.5/weather?q=san antonio,cl&units=imperial&appid=InsertKey"
Khanpur,PK,28.65,70.66,50.42,95,0,9.78,"http://api.openweathermap.org/data/2.5/weather?q=khanpur,pk&units=imperial&appid=InsertKey"
Luderitz,NA,-26.65,15.16,66.2,48,0,23.04,"http://api.openweathermap.org/data/2.5/weather?q=luderitz,na&units=imperial&appid=InsertKey"
Naze,JP,28.37,129.48,57.2,54,75,17.22,"http://api.openweathermap.org/data/2.5/weather?q=naze,jp&units=imperial&appid=InsertKey"
Sao Joao da Barra,BR,-21.64,-41.05,73.4,73,0,4.7,"http://api.openweathermap.org/data/2.5/weather?q=sao joao da barra,br&units=imperial&appid=InsertKey"
Isangel,VU,-19.55,169.27,80.62,98,80,11.3,"http://api.openweathermap.org/data/2.5/weather?q=isangel,vu&units=imperial&appid=InsertKey"
Usogorsk,RU,63.41,48.69,33.01,78,88,10.33,"http://api.openweathermap.org/data/2.5/weather?q=usogorsk,ru&units=imperial&appid=InsertKey"
Kodiak,US,57.79,-152.41,42.8,70,40,5.82,"http://api.openweathermap.org/data/2.5/weather?q=kodiak,us&units=imperial&appid=InsertKey"
Hasaki,JP,35.73,140.83,28.98,51,20,6.93,"http://api.openweathermap.org/data/2.5/weather?q=hasaki,jp&units=imperial&appid=InsertKey"
Bonavista,CA,48.65,-53.11,42.68,88,92,33.67,"http://api.openweathermap.org/data/2.5/weather?q=bonavista,ca&units=imperial&appid=InsertKey"
Gastonia,US,35.26,-81.19,42.8,30,1,5.82,"http://api.openweathermap.org/data/2.5/weather?q=gastonia,us&units=imperial&appid=InsertKey"
Tezu,IN,27.92,96.17,48.76,85,0,1.61,"http://api.openweathermap.org/data/2.5/weather?q=tezu,in&units=imperial&appid=InsertKey"
Ornskoldsvik,SE,63.29,18.72,10.4,92,92,2.24,"http://api.openweathermap.org/data/2.5/weather?q=ornskoldsvik,se&units=imperial&appid=InsertKey"
Grand Gaube,MU,-20.01,57.66,78.8,88,75,6.93,"http://api.openweathermap.org/data/2.5/weather?q=grand gaube,mu&units=imperial&appid=InsertKey"
Bridlington,GB,54.08,-0.19,38.07,93,48,14.99,"http://api.openweathermap.org/data/2.5/weather?q=bridlington,gb&units=imperial&appid=InsertKey"
Balabac,PH,7.99,117.06,78.23,100,92,17.38,"http://api.openweathermap.org/data/2.5/weather?q=balabac,ph&units=imperial&appid=InsertKey"
Dingle,IE,52.14,-10.27,47.09,100,48,36.84,"http://api.openweathermap.org/data/2.5/weather?q=dingle,ie&units=imperial&appid=InsertKey"
Gulariya,NP,28.23,81.33,45.47,76,0,1.79,"http://api.openweathermap.org/data/2.5/weather?q=gulariya,np&units=imperial&appid=InsertKey"
Manjacaze,MZ,-24.71,33.88,78.86,75,8,11.3,"http://api.openweathermap.org/data/2.5/weather?q=manjacaze,mz&units=imperial&appid=InsertKey"
Atar,MR,20.52,-13.05,50.15,62,0,6.87,"http://api.openweathermap.org/data/2.5/weather?q=atar,mr&units=imperial&appid=InsertKey"
Plastun,RU,44.76,136.29,2.45,65,76,3.36,"http://api.openweathermap.org/data/2.5/weather?q=plastun,ru&units=imperial&appid=InsertKey"
Faanui,PF,-16.48,-151.75,82.69,100,32,1.05,"http://api.openweathermap.org/data/2.5/weather?q=faanui,pf&units=imperial&appid=InsertKey"
Saint-Philippe,RE,-21.36,55.77,78.8,74,75,5.82,"http://api.openweathermap.org/data/2.5/weather?q=saint-philippe,re&units=imperial&appid=InsertKey"
Kampong Cham,KH,11.99,105.46,72.29,100,64,4.41,"http://api.openweathermap.org/data/2.5/weather?q=kampong cham,kh&units=imperial&appid=InsertKey"
Cascais,PT,38.7,-9.42,55.4,100,75,2.24,"http://api.openweathermap.org/data/2.5/weather?q=cascais,pt&units=imperial&appid=InsertKey"
Dolores,AR,-36.31,-57.68,70.67,74,76,4.36,"http://api.openweathermap.org/data/2.5/weather?q=dolores,ar&units=imperial&appid=InsertKey"
Nenjiang,CN,49.18,125.22,-24.15,35,0,3.58,"http://api.openweathermap.org/data/2.5/weather?q=nenjiang,cn&units=imperial&appid=InsertKey"
Lebu,CL,-37.62,-73.65,56.59,98,8,9.95,"http://api.openweathermap.org/data/2.5/weather?q=lebu,cl&units=imperial&appid=InsertKey"
Olinda,BR,-8.01,-34.86,80.6,69,20,5.82,"http://api.openweathermap.org/data/2.5/weather?q=olinda,br&units=imperial&appid=InsertKey"
General Roca,AR,-39.03,-67.58,82.4,51,0,6.93,"http://api.openweathermap.org/data/2.5/weather?q=general roca,ar&units=imperial&appid=InsertKey"
Sandorfalva,HU,46.36,20.1,30.2,100,90,4.7,"http://api.openweathermap.org/data/2.5/weather?q=sandorfalva,hu&units=imperial&appid=InsertKey"
Pestyaki,RU,56.71,42.67,31.25,100,92,3.8,"http://api.openweathermap.org/data/2.5/weather?q=pestyaki,ru&units=imperial&appid=InsertKey"
Norman Wells,CA,65.28,-126.83,8.6,84,40,6.93,"http://api.openweathermap.org/data/2.5/weather?q=norman wells,ca&units=imperial&appid=InsertKey"
Varnavino,RU,57.4,45.09,33.77,98,92,3.4,"http://api.openweathermap.org/data/2.5/weather?q=varnavino,ru&units=imperial&appid=InsertKey"
Loandjili,CG,-4.76,11.86,80.6,88,40,6.93,"http://api.openweathermap.org/data/2.5/weather?q=loandjili,cg&units=imperial&appid=InsertKey"
Adrar,DZ,27.87,-0.29,59.0,22,0,16.11,"http://api.openweathermap.org/data/2.5/weather?q=adrar,dz&units=imperial&appid=InsertKey"
Taoudenni,ML,22.68,-3.98,50.06,50,0,6.64,"http://api.openweathermap.org/data/2.5/weather?q=taoudenni,ml&units=imperial&appid=InsertKey"
Fairbanks,US,64.84,-147.72,40.46,55,75,14.99,"http://api.openweathermap.org/data/2.5/weather?q=fairbanks,us&units=imperial&appid=InsertKey"
Atambua,ID,-9.11,124.89,85.34,86,8,3.62,"http://api.openweathermap.org/data/2.5/weather?q=atambua,id&units=imperial&appid=InsertKey"
Boguchany,RU,58.38,97.45,-1.47,69,48,4.52,"http://api.openweathermap.org/data/2.5/weather?q=boguchany,ru&units=imperial&appid=InsertKey"
Bengkulu,ID,-3.8,102.27,73.64,100,92,11.34,"http://api.openweathermap.org/data/2.5/weather?q=bengkulu,id&units=imperial&appid=InsertKey"
Cabedelo,BR,-6.98,-34.83,78.8,74,20,6.93,"http://api.openweathermap.org/data/2.5/weather?q=cabedelo,br&units=imperial&appid=InsertKey"
La Fleche,FR,47.7,-0.08,48.83,81,0,17.22,"http://api.openweathermap.org/data/2.5/weather?q=la fleche,fr&units=imperial&appid=InsertKey"
Podgorenskiy,RU,50.41,39.64,43.54,97,92,10.4,"http://api.openweathermap.org/data/2.5/weather?q=podgorenskiy,ru&units=imperial&appid=InsertKey"
Aizkraukle,LV,56.6,25.26,26.21,94,8,8.66,"http://api.openweathermap.org/data/2.5/weather?q=aizkraukle,lv&units=imperial&appid=InsertKey"
Bredasdorp,ZA,-34.53,20.04,62.6,88,88,4.7,"http://api.openweathermap.org/data/2.5/weather?q=bredasdorp,za&units=imperial&appid=InsertKey"
Yabrud,SY,33.97,36.66,46.4,75,0,6.93,"http://api.openweathermap.org/data/2.5/weather?q=yabrud,sy&units=imperial&appid=InsertKey"
Victoria,SC,-4.62,55.45,78.8,88,40,8.05,"http://api.openweathermap.org/data/2.5/weather?q=victoria,sc&units=imperial&appid=InsertKey"
Sabya,SA,17.15,42.63,75.2,78,0,3.36,"http://api.openweathermap.org/data/2.5/weather?q=sabya,sa&units=imperial&appid=InsertKey"
Jamestown,SH,-15.94,-5.72,69.5,100,8,11.97,"http://api.openweathermap.org/data/2.5/weather?q=jamestown,sh&units=imperial&appid=InsertKey"
Prince Rupert,CA,54.32,-130.32,48.2,87,20,2.24,"http://api.openweathermap.org/data/2.5/weather?q=prince rupert,ca&units=imperial&appid=InsertKey"
Egvekinot,RU,66.32,-179.17,21.67,96,88,2.35,"http://api.openweathermap.org/data/2.5/weather?q=egvekinot,ru&units=imperial&appid=InsertKey"
Petropavlovsk-Kamchatskiy,RU,53.05,158.65,21.2,57,80,11.18,"http://api.openweathermap.org/data/2.5/weather?q=petropavlovsk-kamchatskiy,ru&units=imperial&appid=InsertKey"
Saint-Francois,GP,16.25,-61.27,78.8,74,0,5.82,"http://api.openweathermap.org/data/2.5/weather?q=saint-francois,gp&units=imperial&appid=InsertKey"
San Ramon,BO,-13.28,-64.72,91.4,59,75,3.62,"http://api.openweathermap.org/data/2.5/weather?q=san ramon,bo&units=imperial&appid=InsertKey"
Adelaide,AU,-34.93,138.6,66.2,77,75,16.11,"http://api.openweathermap.org/data/2.5/weather?q=adelaide,au&units=imperial&appid=InsertKey"
Rikitea,PF,-23.12,-134.97,76.39,100,48,13.91,"http://api.openweathermap.org/data/2.5/weather?q=rikitea,pf&units=imperial&appid=InsertKey"
Kinablangan,PH,7.69,126.55,79.81,100,100,14.47,"http://api.openweathermap.org/data/2.5/weather?q=kinablangan,ph&units=imperial&appid=InsertKey"
Sarakhs,IR,36.54,61.16,28.4,63,48,2.24,"http://api.openweathermap.org/data/2.5/weather?q=sarakhs,ir&units=imperial&appid=InsertKey"
Esmeralda,CU,21.85,-78.12,71.6,56,20,11.41,"http://api.openweathermap.org/data/2.5/weather?q=esmeralda,cu&units=imperial&appid=InsertKey"
Zabol,IR,31.03,61.5,41.56,100,48,10.11,"http://api.openweathermap.org/data/2.5/weather?q=zabol,ir&units=imperial&appid=InsertKey"
Ukiah,US,39.15,-123.21,62.6,27,1,1.83,"http://api.openweathermap.org/data/2.5/weather?q=ukiah,us&units=imperial&appid=InsertKey"
Makakilo City,US,21.35,-158.09,76.57,50,40,10.29,"http://api.openweathermap.org/data/2.5/weather?q=makakilo city,us&units=imperial&appid=InsertKey"
Rancho Palos Verdes,US,33.74,-118.39,76.89,27,5,5.82,"http://api.openweathermap.org/data/2.5/weather?q=rancho palos verdes,us&units=imperial&appid=InsertKey"
Cidreira,BR,-30.18,-50.21,72.38,74,0,13.35,"http://api.openweathermap.org/data/2.5/weather?q=cidreira,br&units=imperial&appid=InsertKey"
Huilong,CN,31.81,121.66,46.24,100,88,14.36,"http://api.openweathermap.org/data/2.5/weather?q=huilong,cn&units=imperial&appid=InsertKey"
Moraga,US,37.83,-122.13,60.8,42,1,8.05,"http://api.openweathermap.org/data/2.5/weather?q=moraga,us&units=imperial&appid=InsertKey"
San Cristobal,EC,-0.9,-89.62,71.6,83,90,11.41,"http://api.openweathermap.org/data/2.5/weather?q=san cristobal,ec&units=imperial&appid=InsertKey"
Talnakh,RU,69.49,88.4,-15.46,91,88,7.31,"http://api.openweathermap.org/data/2.5/weather?q=talnakh,ru&units=imperial&appid=InsertKey"
Belmonte,BR,-15.86,-38.88,75.2,94,90,4.7,"http://api.openweathermap.org/data/2.5/weather?q=belmonte,br&units=imperial&appid=InsertKey"
Te Anau,NZ,-45.42,167.72,60.46,74,48,4.74,"http://api.openweathermap.org/data/2.5/weather?q=te anau,nz&units=imperial&appid=InsertKey"
Bologoye,RU,57.88,34.11,26.17,93,68,9.78,"http://api.openweathermap.org/data/2.5/weather?q=bologoye,ru&units=imperial&appid=InsertKey"
Albany,AU,-35.02,117.89,65.09,78,0,4.81,"http://api.openweathermap.org/data/2.5/weather?q=albany,au&units=imperial&appid=InsertKey"
College,US,64.86,-147.8,40.46,55,75,14.99,"http://api.openweathermap.org/data/2.5/weather?q=college,us&units=imperial&appid=InsertKey"
Fort Nelson,CA,58.81,-122.7,24.8,85,40,3.36,"http://api.openweathermap.org/data/2.5/weather?q=fort nelson,ca&units=imperial&appid=InsertKey"
Praia da Vitoria,PT,38.73,-27.07,62.6,88,40,13.69,"http://api.openweathermap.org/data/2.5/weather?q=praia da vitoria,pt&units=imperial&appid=InsertKey"
Punta Arenas,CL,-53.15,-70.92,57.2,54,75,26.4,"http://api.openweathermap.org/data/2.5/weather?q=punta arenas,cl&units=imperial&appid=InsertKey"
Hobart,AU,-42.88,147.33,77.0,44,0,17.22,"http://api.openweathermap.org/data/2.5/weather?q=hobart,au&units=imperial&appid=InsertKey"
Nisia Floresta,BR,-6.09,-35.21,80.6,74,40,10.29,"http://api.openweathermap.org/data/2.5/weather?q=nisia floresta,br&units=imperial&appid=InsertKey"
Saskylakh,RU,71.92,114.08,-30.9,52,64,3.4,"http://api.openweathermap.org/data/2.5/weather?q=saskylakh,ru&units=imperial&appid=InsertKey"
Laguna,BR,-28.48,-48.78,73.82,89,0,26.11,"http://api.openweathermap.org/data/2.5/weather?q=laguna,br&units=imperial&appid=InsertKey"
Qaanaaq,GL,77.48,-69.36,13.39,91,80,7.09,"http://api.openweathermap.org/data/2.5/weather?q=qaanaaq,gl&units=imperial&appid=InsertKey"
Busselton,AU,-33.65,115.33,65.36,100,20,5.82,"http://api.openweathermap.org/data/2.5/weather?q=busselton,au&units=imperial&appid=InsertKey"
Yellowknife,CA,62.46,-114.35,15.8,85,75,9.17,"http://api.openweathermap.org/data/2.5/weather?q=yellowknife,ca&units=imperial&appid=InsertKey"
Guerrero Negro,MX,27.98,-114.06,70.81,42,0,7.87,"http://api.openweathermap.org/data/2.5/weather?q=guerrero negro,mx&units=imperial&appid=InsertKey"
Praia,CV,14.92,-23.51,75.2,64,75,18.34,"http://api.openweathermap.org/data/2.5/weather?q=praia,cv&units=imperial&appid=InsertKey"
Port Lincoln,AU,-34.73,135.87,64.73,90,36,10.45,"http://api.openweathermap.org/data/2.5/weather?q=port lincoln,au&units=imperial&appid=InsertKey"
Vila Velha,BR,-20.33,-40.29,77.0,73,75,11.41,"http://api.openweathermap.org/data/2.5/weather?q=vila velha,br&units=imperial&appid=InsertKey"
Lithia Springs,US,33.79,-84.66,48.02,23,1,10.29,"http://api.openweathermap.org/data/2.5/weather?q=lithia springs,us&units=imperial&appid=InsertKey"
San Jose,GT,16.98,-89.9,70.04,66,8,3.13,"http://api.openweathermap.org/data/2.5/weather?q=san jose,gt&units=imperial&appid=InsertKey"
Atbasar,KZ,51.8,68.33,-13.8,63,0,5.82,"http://api.openweathermap.org/data/2.5/weather?q=atbasar,kz&units=imperial&appid=InsertKey"
Coquimbo,CL,-29.95,-71.34,66.2,72,0,9.17,"http://api.openweathermap.org/data/2.5/weather?q=coquimbo,cl&units=imperial&appid=InsertKey"
Havre-Saint-Pierre,CA,50.23,-63.6,39.2,100,90,19.46,"http://api.openweathermap.org/data/2.5/weather?q=havre-saint-pierre,ca&units=imperial&appid=InsertKey"
Bluff,NZ,-46.6,168.33,57.35,100,0,5.14,"http://api.openweathermap.org/data/2.5/weather?q=bluff,nz&units=imperial&appid=InsertKey"
Clyde River,CA,70.47,-68.59,1.4,77,1,6.93,"http://api.openweathermap.org/data/2.5/weather?q=clyde river,ca&units=imperial&appid=InsertKey"
Harper,LR,4.38,-7.72,81.79,100,0,7.09,"http://api.openweathermap.org/data/2.5/weather?q=harper,lr&units=imperial&appid=InsertKey"
Chokurdakh,RU,70.63,147.92,-14.34,67,56,4.25,"http://api.openweathermap.org/data/2.5/weather?q=chokurdakh,ru&units=imperial&appid=InsertKey"
Gimli,CA,50.63,-96.99,15.41,79,76,5.86,"http://api.openweathermap.org/data/2.5/weather?q=gimli,ca&units=imperial&appid=InsertKey"
Vyshkov,RU,52.48,31.69,32.0,87,90,2.24,"http://api.openweathermap.org/data/2.5/weather?q=vyshkov,ru&units=imperial&appid=InsertKey"
Coihaique,CL,-45.58,-72.07,63.16,59,75,9.17,"http://api.openweathermap.org/data/2.5/weather?q=coihaique,cl&units=imperial&appid=InsertKey"
Kapaa,US,22.08,-159.32,74.37,56,75,19.46,"http://api.openweathermap.org/data/2.5/weather?q=kapaa,us&units=imperial&appid=InsertKey"
Effium,NG,6.63,8.06,79.94,31,0,10.11,"http://api.openweathermap.org/data/2.5/weather?q=effium,ng&units=imperial&appid=InsertKey"
Pueblo Nuevo,MX,19.67,-99.62,69.8,15,40,12.75,"http://api.openweathermap.org/data/2.5/weather?q=pueblo nuevo,mx&units=imperial&appid=InsertKey"
Alghero,IT,40.56,8.32,55.4,62,40,12.75,"http://api.openweathermap.org/data/2.5/weather?q=alghero,it&units=imperial&appid=InsertKey"
Chuy,UY,-33.7,-53.46,73.46,77,24,13.98,"http://api.openweathermap.org/data/2.5/weather?q=chuy,uy&units=imperial&appid=InsertKey"
Ushuaia,AR,-54.8,-68.3,60.8,41,40,3.36,"http://api.openweathermap.org/data/2.5/weather?q=ushuaia,ar&units=imperial&appid=InsertKey"
Carnarvon,AU,-24.87,113.63,76.52,85,0,21.14,"http://api.openweathermap.org/data/2.5/weather?q=carnarvon,au&units=imperial&appid=InsertKey"
Vaini,TO,-21.2,-175.2,78.8,65,40,9.78,"http://api.openweathermap.org/data/2.5/weather?q=vaini,to&units=imperial&appid=InsertKey"
Korla,CN,41.76,86.15,10.51,71,48,2.8,"http://api.openweathermap.org/data/2.5/weather?q=korla,cn&units=imperial&appid=InsertKey"
Hudiksvall,SE,61.73,17.1,35.39,100,80,16.67,"http://api.openweathermap.org/data/2.5/weather?q=hudiksvall,se&units=imperial&appid=InsertKey"
Avarua,CK,-21.21,-159.78,84.2,79,75,5.82,"http://api.openweathermap.org/data/2.5/weather?q=avarua,ck&units=imperial&appid=InsertKey"
Lulea,SE,65.58,22.15,8.6,84,0,3.36,"http://api.openweathermap.org/data/2.5/weather?q=lulea,se&units=imperial&appid=InsertKey"
Nemuro,JP,43.32,145.57,37.82,100,44,27.51,"http://api.openweathermap.org/data/2.5/weather?q=nemuro,jp&units=imperial&appid=InsertKey"
Inhambane,MZ,-23.86,35.38,77.78,96,68,13.58,"http://api.openweathermap.org/data/2.5/weather?q=inhambane,mz&units=imperial&appid=InsertKey"
Cherskiy,RU,68.75,161.3,3.67,82,80,8.84,"http://api.openweathermap.org/data/2.5/weather?q=cherskiy,ru&units=imperial&appid=InsertKey"
Cape Town,ZA,-33.93,18.42,60.8,93,75,2.24,"http://api.openweathermap.org/data/2.5/weather?q=cape town,za&units=imperial&appid=InsertKey"
Ponta do Sol,CV,17.2,-25.09,73.42,100,80,20.24,"http://api.openweathermap.org/data/2.5/weather?q=ponta do sol,cv&units=imperial&appid=InsertKey"
Maceio,BR,-9.67,-35.74,75.2,83,0,6.93,"http://api.openweathermap.org/data/2.5/weather?q=maceio,br&units=imperial&appid=InsertKey"
Amarillo,US,35.22,-101.83,63.27,13,1,11.41,"http://api.openweathermap.org/data/2.5/weather?q=amarillo,us&units=imperial&appid=InsertKey"
Padang,ID,-0.95,100.35,80.21,100,80,6.64,"http://api.openweathermap.org/data/2.5/weather?q=padang,id&units=imperial&appid=InsertKey"
Vao,NC,-22.67,167.48,76.97,100,68,12.91,"http://api.openweathermap.org/data/2.5/weather?q=vao,nc&units=imperial&appid=InsertKey"
Haines Junction,CA,60.75,-137.51,19.96,82,44,2.51,"http://api.openweathermap.org/data/2.5/weather?q=haines junction,ca&units=imperial&appid=InsertKey"
Bathsheba,BB,13.22,-59.52,80.6,83,20,13.87,"http://api.openweathermap.org/data/2.5/weather?q=bathsheba,bb&units=imperial&appid=InsertKey"
Talcahuano,CL,-36.72,-73.12,66.2,63,0,12.75,"http://api.openweathermap.org/data/2.5/weather?q=talcahuano,cl&units=imperial&appid=InsertKey"
Sorong,ID,-0.88,131.25,81.11,100,12,7.65,"http://api.openweathermap.org/data/2.5/weather?q=sorong,id&units=imperial&appid=InsertKey"
Buala,SB,-8.14,159.59,85.57,84,92,8.61,"http://api.openweathermap.org/data/2.5/weather?q=buala,sb&units=imperial&appid=InsertKey"
Lamballe,FR,48.47,-2.51,44.6,81,75,21.92,"http://api.openweathermap.org/data/2.5/weather?q=lamballe,fr&units=imperial&appid=InsertKey"
Huarmey,PE,-10.07,-78.15,67.25,68,92,4.03,"http://api.openweathermap.org/data/2.5/weather?q=huarmey,pe&units=imperial&appid=InsertKey"
Baiquan,CN,47.58,126.08,-25.45,38,8,4.14,"http://api.openweathermap.org/data/2.5/weather?q=baiquan,cn&units=imperial&appid=InsertKey"
Comodoro Rivadavia,AR,-45.87,-67.5,75.2,36,0,26.4,"http://api.openweathermap.org/data/2.5/weather?q=comodoro rivadavia,ar&units=imperial&appid=InsertKey"
Suez,EG,29.97,32.53,51.19,92,92,2.8,"http://api.openweathermap.org/data/2.5/weather?q=suez,eg&units=imperial&appid=InsertKey"
Beroroha,MG,-21.67,45.17,75.35,82,44,3.02,"http://api.openweathermap.org/data/2.5/weather?q=beroroha,mg&units=imperial&appid=InsertKey"
Porto Walter,BR,-8.27,-72.74,78.05,92,68,1.72,"http://api.openweathermap.org/data/2.5/weather?q=porto walter,br&units=imperial&appid=InsertKey"
Tessalit,ML,20.2,1.01,65.14,48,64,11.45,"http://api.openweathermap.org/data/2.5/weather?q=tessalit,ml&units=imperial&appid=InsertKey"
Chunoyar,RU,57.45,97.32,3.26,73,48,4.59,"http://api.openweathermap.org/data/2.5/weather?q=chunoyar,ru&units=imperial&appid=InsertKey"
Garissa,KE,-0.45,39.64,73.42,66,0,5.59,"http://api.openweathermap.org/data/2.5/weather?q=garissa,ke&units=imperial&appid=InsertKey"
Aklavik,CA,68.22,-135.01,9.77,92,90,5.82,"http://api.openweathermap.org/data/2.5/weather?q=aklavik,ca&units=imperial&appid=InsertKey"
Radyvyliv,UA,50.13,25.26,32.87,98,88,5.82,"http://api.openweathermap.org/data/2.5/weather?q=radyvyliv,ua&units=imperial&appid=InsertKey"
Karwar,IN,14.8,74.13,66.98,84,88,1.83,"http://api.openweathermap.org/data/2.5/weather?q=karwar,in&units=imperial&appid=InsertKey"
Trincomalee,LK,8.57,81.23,71.71,92,44,2.01,"http://api.openweathermap.org/data/2.5/weather?q=trincomalee,lk&units=imperial&appid=InsertKey"
Tasiilaq,GL,65.61,-37.64,26.6,68,40,3.36,"http://api.openweathermap.org/data/2.5/weather?q=tasiilaq,gl&units=imperial&appid=InsertKey"
Labytnangi,RU,66.66,66.42,2.0,69,64,12.8,"http://api.openweathermap.org/data/2.5/weather?q=labytnangi,ru&units=imperial&appid=InsertKey"
Gao,ML,16.27,-0.04,67.61,57,0,5.75,"http://api.openweathermap.org/data/2.5/weather?q=gao,ml&units=imperial&appid=InsertKey"
Riyadh,SA,24.69,46.72,50.0,21,0,2.8,"http://api.openweathermap.org/data/2.5/weather?q=riyadh,sa&units=imperial&appid=InsertKey"
Lefka,CY,35.11,32.85,54.27,76,20,10.29,"http://api.openweathermap.org/data/2.5/weather?q=lefka,cy&units=imperial&appid=InsertKey"
Calamar,CO,10.25,-74.91,86.0,70,20,11.41,"http://api.openweathermap.org/data/2.5/weather?q=calamar,co&units=imperial&appid=InsertKey"
Ilulissat,GL,69.22,-51.1,19.4,85,64,11.41,"http://api.openweathermap.org/data/2.5/weather?q=ilulissat,gl&units=imperial&appid=InsertKey"
Belyy Yar,RU,53.6,91.39,12.2,85,40,2.24,"http://api.openweathermap.org/data/2.5/weather?q=belyy yar,ru&units=imperial&appid=InsertKey"
Grudziadz,PL,53.48,18.75,32.0,89,0,10.29,"http://api.openweathermap.org/data/2.5/weather?q=grudziadz,pl&units=imperial&appid=InsertKey"
Tiksi,RU,71.69,128.87,-47.59,0,8,2.39,"http://api.openweathermap.org/data/2.5/weather?q=tiksi,ru&units=imperial&appid=InsertKey"
Saint George,BM,32.38,-64.68,66.2,63,75,28.86,"http://api.openweathermap.org/data/2.5/weather?q=saint george,bm&units=imperial&appid=InsertKey"
Puerto Ayora,EC,-0.74,-90.35,78.8,61,20,16.11,"http://api.openweathermap.org/data/2.5/weather?q=puerto ayora,ec&units=imperial&appid=InsertKey"
Lucapa,AO,-8.42,20.74,68.11,97,80,2.73,"http://api.openweathermap.org/data/2.5/weather?q=lucapa,ao&units=imperial&appid=InsertKey"
Hay River,CA,60.82,-115.8,21.2,92,90,3.36,"http://api.openweathermap.org/data/2.5/weather?q=hay river,ca&units=imperial&appid=InsertKey"
Cayenne,GF,4.93,-52.33,78.8,88,90,4.7,"http://api.openweathermap.org/data/2.5/weather?q=cayenne,gf&units=imperial&appid=InsertKey"
Newnan,US,33.38,-84.8,48.0,23,1,8.05,"http://api.openweathermap.org/data/2.5/weather?q=newnan,us&units=imperial&appid=InsertKey"
Sovetskiy,RU,61.36,63.58,12.31,81,80,11.12,"http://api.openweathermap.org/data/2.5/weather?q=sovetskiy,ru&units=imperial&appid=InsertKey"
Resistencia,AR,-27.46,-58.98,96.8,25,24,12.75,"http://api.openweathermap.org/data/2.5/weather?q=resistencia,ar&units=imperial&appid=InsertKey"
Vryburg,ZA,-26.96,24.73,60.32,22,0,10.78,"http://api.openweathermap.org/data/2.5/weather?q=vryburg,za&units=imperial&appid=InsertKey"
Ust-Kuyga,RU,70.02,135.6,-49.8,0,0,2.84,"http://api.openweathermap.org/data/2.5/weather?q=ust-kuyga,ru&units=imperial&appid=InsertKey"
Isla Vista,US,34.41,-119.86,74.61,7,1,4.7,"http://api.openweathermap.org/data/2.5/weather?q=isla vista,us&units=imperial&appid=InsertKey"
Abalak,NE,15.45,6.28,69.32,44,76,11.63,"http://api.openweathermap.org/data/2.5/weather?q=abalak,ne&units=imperial&appid=InsertKey"
Rtishchevo,RU,52.26,43.79,36.07,94,92,12.3,"http://api.openweathermap.org/data/2.5/weather?q=rtishchevo,ru&units=imperial&appid=InsertKey"
Abengourou,CI,6.73,-3.5,75.35,87,36,5.53,"http://api.openweathermap.org/data/2.5/weather?q=abengourou,ci&units=imperial&appid=InsertKey"
Tilichiki,RU,60.47,166.1,-12.85,79,80,5.59,"http://api.openweathermap.org/data/2.5/weather?q=tilichiki,ru&units=imperial&appid=InsertKey"
Bodden Town,KY,19.28,-81.25,77.0,69,20,11.41,"http://api.openweathermap.org/data/2.5/weather?q=bodden town,ky&units=imperial&appid=InsertKey"
Tromso,NO,69.65,18.96,30.2,92,75,11.41,"http://api.openweathermap.org/data/2.5/weather?q=tromso,no&units=imperial&appid=InsertKey"
Los Llanos de Aridane,ES,28.66,-17.92,66.2,63,32,16.11,"http://api.openweathermap.org/data/2.5/weather?q=los llanos de aridane,es&units=imperial&appid=InsertKey"
Warri,NG,5.52,5.75,73.01,71,8,4.63,"http://api.openweathermap.org/data/2.5/weather?q=warri,ng&units=imperial&appid=InsertKey"
Suoyarvi,RU,62.08,32.35,32.15,88,92,11.68,"http://api.openweathermap.org/data/2.5/weather?q=suoyarvi,ru&units=imperial&appid=InsertKey"
Castro,CL,-42.47,-73.77,55.64,98,92,10.45,"http://api.openweathermap.org/data/2.5/weather?q=castro,cl&units=imperial&appid=InsertKey"
Antalaha,MG,-14.9,50.28,74.99,100,92,7.61,"http://api.openweathermap.org/data/2.5/weather?q=antalaha,mg&units=imperial&appid=InsertKey"
Sept-Iles,CA,50.2,-66.38,30.2,92,90,12.75,"http://api.openweathermap.org/data/2.5/weather?q=sept-iles,ca&units=imperial&appid=InsertKey"
Beringovskiy,RU,63.05,179.32,-5.2,100,0,3.8,"http://api.openweathermap.org/data/2.5/weather?q=beringovskiy,ru&units=imperial&appid=InsertKey"
Elko,US,40.83,-115.76,39.2,48,90,4.7,"http://api.openweathermap.org/data/2.5/weather?q=elko,us&units=imperial&appid=InsertKey"
Touros,BR,-5.2,-35.46,79.94,84,92,11.18,"http://api.openweathermap.org/data/2.5/weather?q=touros,br&units=imperial&appid=InsertKey"
The Valley,AI,18.22,-63.06,78.87,78,20,5.82,"http://api.openweathermap.org/data/2.5/weather?q=the valley,ai&units=imperial&appid=InsertKey"
Baghdad,IQ,33.34,44.4,46.4,61,0,3.36,"http://api.openweathermap.org/data/2.5/weather?q=baghdad,iq&units=imperial&appid=InsertKey"
Batagay-Alyta,RU,67.8,130.41,-48.9,0,12,2.62,"http://api.openweathermap.org/data/2.5/weather?q=batagay-alyta,ru&units=imperial&appid=InsertKey"
Hailar,CN,49.2,119.7,-23.11,32,48,3.13,"http://api.openweathermap.org/data/2.5/weather?q=hailar,cn&units=imperial&appid=InsertKey"
Saint-Augustin,CA,51.23,-58.65,43.76,87,92,31.99,"http://api.openweathermap.org/data/2.5/weather?q=saint-augustin,ca&units=imperial&appid=InsertKey"
Port Hedland,AU,-20.32,118.57,77.0,94,0,8.05,"http://api.openweathermap.org/data/2.5/weather?q=port hedland,au&units=imperial&appid=InsertKey"
Tianpeng,CN,30.99,103.94,46.4,93,40,2.24,"http://api.openweathermap.org/data/2.5/weather?q=tianpeng,cn&units=imperial&appid=InsertKey"
Pacific Grove,US,36.62,-121.92,66.74,25,1,14.99,"http://api.openweathermap.org/data/2.5/weather?q=pacific grove,us&units=imperial&appid=InsertKey"
Voznesenye,RU,61.01,35.48,27.83,91,0,19.24,"http://api.openweathermap.org/data/2.5/weather?q=voznesenye,ru&units=imperial&appid=InsertKey"
Turayf,SA,31.67,38.66,46.4,70,0,4.7,"http://api.openweathermap.org/data/2.5/weather?q=turayf,sa&units=imperial&appid=InsertKey"
Nyurba,RU,63.28,118.33,-16.95,74,68,3.02,"http://api.openweathermap.org/data/2.5/weather?q=nyurba,ru&units=imperial&appid=InsertKey"
Klaksvik,FO,62.23,-6.59,37.4,93,64,1.12,"http://api.openweathermap.org/data/2.5/weather?q=klaksvik,fo&units=imperial&appid=InsertKey"
Broome,AU,-17.97,122.23,86.0,70,64,12.75,"http://api.openweathermap.org/data/2.5/weather?q=broome,au&units=imperial&appid=InsertKey"
Muzhi,RU,65.37,64.67,6.41,73,48,16.37,"http://api.openweathermap.org/data/2.5/weather?q=muzhi,ru&units=imperial&appid=InsertKey"
Yerbogachen,RU,61.28,108.01,-13.3,81,56,4.29,"http://api.openweathermap.org/data/2.5/weather?q=yerbogachen,ru&units=imperial&appid=InsertKey"
Salalah,OM,17.02,54.09,69.8,11,0,12.75,"http://api.openweathermap.org/data/2.5/weather?q=salalah,om&units=imperial&appid=InsertKey"
Pachino,IT,36.72,15.09,46.4,93,0,3.36,"http://api.openweathermap.org/data/2.5/weather?q=pachino,it&units=imperial&appid=InsertKey"
Bajil,YE,15.06,43.29,58.16,75,0,4.52,"http://api.openweathermap.org/data/2.5/weather?q=bajil,ye&units=imperial&appid=InsertKey"
Necochea,AR,-38.55,-58.74,61.49,100,100,6.64,"http://api.openweathermap.org/data/2.5/weather?q=necochea,ar&units=imperial&appid=InsertKey"
Myitkyina,MM,25.38,97.4,57.8,97,0,1.72,"http://api.openweathermap.org/data/2.5/weather?q=myitkyina,mm&units=imperial&appid=InsertKey"
Rio Verde de Mato Grosso,BR,-18.92,-54.84,84.08,47,32,10.63,"http://api.openweathermap.org/data/2.5/weather?q=rio verde de mato grosso,br&units=imperial&appid=InsertKey"
Norwich,GB,52.63,1.3,37.72,86,0,11.41,"http://api.openweathermap.org/data/2.5/weather?q=norwich,gb&units=imperial&appid=InsertKey"
Bubaque,GW,11.28,-15.83,73.4,53,0,3.36,"http://api.openweathermap.org/data/2.5/weather?q=bubaque,gw&units=imperial&appid=InsertKey"
Mahebourg,MU,-20.41,57.7,78.8,88,75,6.93,"http://api.openweathermap.org/data/2.5/weather?q=mahebourg,mu&units=imperial&appid=InsertKey"
Camacha,PT,33.08,-16.33,62.6,77,40,6.93,"http://api.openweathermap.org/data/2.5/weather?q=camacha,pt&units=imperial&appid=InsertKey"
Souillac,MU,-20.52,57.52,78.8,88,75,6.93,"http://api.openweathermap.org/data/2.5/weather?q=souillac,mu&units=imperial&appid=InsertKey"
Coruripe,BR,-10.13,-36.18,79.31,95,20,13.69,"http://api.openweathermap.org/data/2.5/weather?q=coruripe,br&units=imperial&appid=InsertKey"
Gunjur,GM,13.2,-16.73,75.26,91,0,13.13,"http://api.openweathermap.org/data/2.5/weather?q=gunjur,gm&units=imperial&appid=InsertKey"
Omboue,GA,-1.57,9.26,80.3,100,76,8.66,"http://api.openweathermap.org/data/2.5/weather?q=omboue,ga&units=imperial&appid=InsertKey"
Kargil,IN,34.57,76.1,0.83,82,68,1.23,"http://api.openweathermap.org/data/2.5/weather?q=kargil,in&units=imperial&appid=InsertKey"
Kununurra,AU,-15.77,128.73,84.2,79,0,11.41,"http://api.openweathermap.org/data/2.5/weather?q=kununurra,au&units=imperial&appid=InsertKey"
Margate,ZA,-30.86,30.37,67.12,100,92,13.42,"http://api.openweathermap.org/data/2.5/weather?q=margate,za&units=imperial&appid=InsertKey"
Flin Flon,CA,54.77,-101.86,17.6,85,90,4.7,"http://api.openweathermap.org/data/2.5/weather?q=flin flon,ca&units=imperial&appid=InsertKey"
Marquette,US,46.54,-87.4,15.17,92,90,6.93,"http://api.openweathermap.org/data/2.5/weather?q=marquette,us&units=imperial&appid=InsertKey"
Namibe,AO,-15.2,12.15,70.85,100,0,5.3,"http://api.openweathermap.org/data/2.5/weather?q=namibe,ao&units=imperial&appid=InsertKey"
Teya,RU,60.38,92.63,-3.31,74,76,3.13,"http://api.openweathermap.org/data/2.5/weather?q=teya,ru&units=imperial&appid=InsertKey"
Perevolotskiy,RU,51.88,54.19,16.76,87,92,11.45,"http://api.openweathermap.org/data/2.5/weather?q=perevolotskiy,ru&units=imperial&appid=InsertKey"
Bria,CF,6.54,21.99,64.19,62,0,7.05,"http://api.openweathermap.org/data/2.5/weather?q=bria,cf&units=imperial&appid=InsertKey"
Ust-Tsilma,RU,65.44,52.15,31.25,79,92,11.56,"http://api.openweathermap.org/data/2.5/weather?q=ust-tsilma,ru&units=imperial&appid=InsertKey"
Lompoc,US,34.64,-120.46,78.39,7,1,4.7,"http://api.openweathermap.org/data/2.5/weather?q=lompoc,us&units=imperial&appid=InsertKey"
Hermanus,ZA,-34.42,19.23,57.62,98,92,2.24,"http://api.openweathermap.org/data/2.5/weather?q=hermanus,za&units=imperial&appid=InsertKey"
Beloha,MG,-25.17,45.05,76.43,66,76,2.35,"http://api.openweathermap.org/data/2.5/weather?q=beloha,mg&units=imperial&appid=InsertKey"
Anamur,TR,36.08,32.84,56.86,93,0,7.09,"http://api.openweathermap.org/data/2.5/weather?q=anamur,tr&units=imperial&appid=InsertKey"
Mar del Plata,AR,-38.0,-57.56,68.0,77,75,9.17,"http://api.openweathermap.org/data/2.5/weather?q=mar del plata,ar&units=imperial&appid=InsertKey"
Port-Gentil,GA,-0.72,8.78,80.6,94,40,4.7,"http://api.openweathermap.org/data/2.5/weather?q=port-gentil,ga&units=imperial&appid=InsertKey"
Cap Malheureux,MU,-19.98,57.61,78.8,88,75,6.93,"http://api.openweathermap.org/data/2.5/weather?q=cap malheureux,mu&units=imperial&appid=InsertKey"
Catuday,PH,16.29,119.81,76.52,100,88,4.07,"http://api.openweathermap.org/data/2.5/weather?q=catuday,ph&units=imperial&appid=InsertKey"
Severnyy,RU,50.68,36.55,41.0,100,90,4.47,"http://api.openweathermap.org/data/2.5/weather?q=severnyy,ru&units=imperial&appid=InsertKey"
Worland,US,44.02,-107.96,39.49,44,90,6.93,"http://api.openweathermap.org/data/2.5/weather?q=worland,us&units=imperial&appid=InsertKey"
Boyle,IE,53.97,-8.3,40.57,94,48,21.41,"http://api.openweathermap.org/data/2.5/weather?q=boyle,ie&units=imperial&appid=InsertKey"
Mezhdurechensk,RU,53.69,88.06,7.13,83,76,2.62,"http://api.openweathermap.org/data/2.5/weather?q=mezhdurechensk,ru&units=imperial&appid=InsertKey"
Kavieng,PG,-2.57,150.8,82.1,100,76,13.31,"http://api.openweathermap.org/data/2.5/weather?q=kavieng,pg&units=imperial&appid=InsertKey"
Geraldton,AU,-28.77,114.6,60.8,87,0,10.29,"http://api.openweathermap.org/data/2.5/weather?q=geraldton,au&units=imperial&appid=InsertKey"
Alta Floresta,BR,-9.88,-56.09,78.23,82,0,1.79,"http://api.openweathermap.org/data/2.5/weather?q=alta floresta,br&units=imperial&appid=InsertKey"
Cam Ranh,VN,11.92,109.16,71.71,100,12,8.32,"http://api.openweathermap.org/data/2.5/weather?q=cam ranh,vn&units=imperial&appid=InsertKey"
Port Alfred,ZA,-33.59,26.89,63.47,100,92,18.39,"http://api.openweathermap.org/data/2.5/weather?q=port alfred,za&units=imperial&appid=InsertKey"
New Norfolk,AU,-42.78,147.06,77.0,44,0,17.22,"http://api.openweathermap.org/data/2.5/weather?q=new norfolk,au&units=imperial&appid=InsertKey"
Puerto Baquerizo Moreno,EC,-0.9,-89.6,71.6,83,90,11.41,"http://api.openweathermap.org/data/2.5/weather?q=puerto baquerizo moreno,ec&units=imperial&appid=InsertKey"
Dunmore Town,BS,25.5,-76.65,72.52,100,0,8.77,"http://api.openweathermap.org/data/2.5/weather?q=dunmore town,bs&units=imperial&appid=InsertKey"
Sorrento,IT,40.63,14.37,51.75,62,40,8.05,"http://api.openweathermap.org/data/2.5/weather?q=sorrento,it&units=imperial&appid=InsertKey"
Rawson,AR,-43.3,-65.1,71.84,54,0,10.4,"http://api.openweathermap.org/data/2.5/weather?q=rawson,ar&units=imperial&appid=InsertKey"
Chiang Khong,TH,20.26,100.4,57.2,100,0,2.06,"http://api.openweathermap.org/data/2.5/weather?q=chiang khong,th&units=imperial&appid=InsertKey"
Merke,KZ,42.87,73.18,-5.79,55,0,1.83,"http://api.openweathermap.org/data/2.5/weather?q=merke,kz&units=imperial&appid=InsertKey"
Bilma,NE,18.69,12.92,65.72,34,0,11.12,"http://api.openweathermap.org/data/2.5/weather?q=bilma,ne&units=imperial&appid=InsertKey"
Varzea Grande,BR,-15.65,-56.13,82.4,74,75,4.7,"http://api.openweathermap.org/data/2.5/weather?q=varzea grande,br&units=imperial&appid=InsertKey"
Hamilton,BM,32.29,-64.78,66.2,63,75,28.86,"http://api.openweathermap.org/data/2.5/weather?q=hamilton,bm&units=imperial&appid=InsertKey"
Richards Bay,ZA,-28.78,32.04,69.77,97,92,12.97,"http://api.openweathermap.org/data/2.5/weather?q=richards bay,za&units=imperial&appid=InsertKey"
Svetlogorsk,RU,54.94,20.15,32.0,100,0,13.42,"http://api.openweathermap.org/data/2.5/weather?q=svetlogorsk,ru&units=imperial&appid=InsertKey"
Sistranda,NO,63.73,8.83,30.2,74,0,6.93,"http://api.openweathermap.org/data/2.5/weather?q=sistranda,no&units=imperial&appid=InsertKey"
Ishigaki,JP,24.34,124.16,66.2,59,75,20.8,"http://api.openweathermap.org/data/2.5/weather?q=ishigaki,jp&units=imperial&appid=InsertKey"
Lithgow,AU,-33.48,150.15,80.6,54,0,4.7,"http://api.openweathermap.org/data/2.5/weather?q=lithgow,au&units=imperial&appid=InsertKey"
Santo Antonio do Monte,BR,-20.09,-45.29,71.39,63,44,10.45,"http://api.openweathermap.org/data/2.5/weather?q=santo antonio do monte,br&units=imperial&appid=InsertKey"
Hualmay,PE,-11.1,-77.61,66.04,81,68,5.03,"http://api.openweathermap.org/data/2.5/weather?q=hualmay,pe&units=imperial&appid=InsertKey"
Caravelas,BR,-17.71,-39.25,77.29,100,100,22.97,"http://api.openweathermap.org/data/2.5/weather?q=caravelas,br&units=imperial&appid=InsertKey"
Danilov,RU,58.19,40.17,30.26,96,68,5.82,"http://api.openweathermap.org/data/2.5/weather?q=danilov,ru&units=imperial&appid=InsertKey"
Port Macquarie,AU,-31.43,152.92,77.0,65,0,8.05,"http://api.openweathermap.org/data/2.5/weather?q=port macquarie,au&units=imperial&appid=InsertKey"
Terrace,CA,54.52,-128.6,35.6,100,90,4.7,"http://api.openweathermap.org/data/2.5/weather?q=terrace,ca&units=imperial&appid=InsertKey"
Hithadhoo,MV,-0.6,73.08,81.65,100,92,8.55,"http://api.openweathermap.org/data/2.5/weather?q=hithadhoo,mv&units=imperial&appid=InsertKey"
Angoram,PG,-4.06,144.07,82.4,83,75,2.8,"http://api.openweathermap.org/data/2.5/weather?q=angoram,pg&units=imperial&appid=InsertKey"
Acarau,BR,-2.89,-40.12,79.85,77,32,13.47,"http://api.openweathermap.org/data/2.5/weather?q=acarau,br&units=imperial&appid=InsertKey"
Marau,BR,-28.45,-52.2,82.4,37,20,6.93,"http://api.openweathermap.org/data/2.5/weather?q=marau,br&units=imperial&appid=InsertKey"
Svetlaya,RU,46.54,138.33,24.32,100,68,7.83,"http://api.openweathermap.org/data/2.5/weather?q=svetlaya,ru&units=imperial&appid=InsertKey"
Berbera,SO,10.44,45.01,51.37,81,0,2.8,"http://api.openweathermap.org/data/2.5/weather?q=berbera,so&units=imperial&appid=InsertKey"
Awjilah,LY,29.11,21.29,44.84,78,0,2.8,"http://api.openweathermap.org/data/2.5/weather?q=awjilah,ly&units=imperial&appid=InsertKey"
Morrope,PE,-6.54,-80.01,69.8,77,40,19.46,"http://api.openweathermap.org/data/2.5/weather?q=morrope,pe&units=imperial&appid=InsertKey"
Hilo,US,19.73,-155.09,66.34,78,40,13.87,"http://api.openweathermap.org/data/2.5/weather?q=hilo,us&units=imperial&appid=InsertKey"
Great Yarmouth,GB,52.61,1.73,39.2,86,0,11.41,"http://api.openweathermap.org/data/2.5/weather?q=great yarmouth,gb&units=imperial&appid=InsertKey"
Mayumba,GA,-3.43,10.66,76.16,100,92,5.64,"http://api.openweathermap.org/data/2.5/weather?q=mayumba,ga&units=imperial&appid=InsertKey"
Shitanjing,CN,39.23,106.34,14.96,92,88,2.57,"http://api.openweathermap.org/data/2.5/weather?q=shitanjing,cn&units=imperial&appid=InsertKey"
Atuona,PF,-9.8,-139.03,80.21,100,24,12.35,"http://api.openweathermap.org/data/2.5/weather?q=atuona,pf&units=imperial&appid=InsertKey"
Blyth,GB,55.13,-1.51,34.21,98,20,12.75,"http://api.openweathermap.org/data/2.5/weather?q=blyth,gb&units=imperial&appid=InsertKey"
Anadyr,RU,64.75,177.48,-0.41,77,90,13.42,"http://api.openweathermap.org/data/2.5/weather?q=anadyr,ru&units=imperial&appid=InsertKey"
Kodiak,US,57.79,-152.41,42.8,75,20,10.29,"http://api.openweathermap.org/data/2.5/weather?q=kodiak,us&units=imperial&appid=InsertKey"
Begoro,GH,6.39,-0.38,74.09,83,12,3.62,"http://api.openweathermap.org/data/2.5/weather?q=begoro,gh&units=imperial&appid=InsertKey"
Oromocto,CA,45.84,-66.48,26.6,86,90,14.99,"http://api.openweathermap.org/data/2.5/weather?q=oromocto,ca&units=imperial&appid=InsertKey"
Georgetown,SH,-7.93,-14.42,75.8,100,68,13.31,"http://api.openweathermap.org/data/2.5/weather?q=georgetown,sh&units=imperial&appid=InsertKey"
Grindavik,IS,63.84,-22.43,30.07,100,0,5.82,"http://api.openweathermap.org/data/2.5/weather?q=grindavik,is&units=imperial&appid=InsertKey"
Stephenville,CA,48.55,-58.58,46.4,87,90,24.16,"http://api.openweathermap.org/data/2.5/weather?q=stephenville,ca&units=imperial&appid=InsertKey"
Guilin,CN,25.28,110.29,46.4,93,90,7.27,"http://api.openweathermap.org/data/2.5/weather?q=guilin,cn&units=imperial&appid=InsertKey"
Uvira,CD,-3.41,29.15,63.47,100,32,2.73,"http://api.openweathermap.org/data/2.5/weather?q=uvira,cd&units=imperial&appid=InsertKey"
Bilibino,RU,68.05,166.44,-13.12,77,80,3.4,"http://api.openweathermap.org/data/2.5/weather?q=bilibino,ru&units=imperial&appid=InsertKey"
Poum,NC,-20.23,164.02,77.69,100,92,10.4,"http://api.openweathermap.org/data/2.5/weather?q=poum,nc&units=imperial&appid=InsertKey"
Balikpapan,ID,-1.27,116.83,80.48,100,88,7.54,"http://api.openweathermap.org/data/2.5/weather?q=balikpapan,id&units=imperial&appid=InsertKey"
Madimba,TZ,-10.4,40.33,81.92,100,36,8.66,"http://api.openweathermap.org/data/2.5/weather?q=madimba,tz&units=imperial&appid=InsertKey"
Pemberton,CA,50.32,-122.8,37.4,90,75,2.24,"http://api.openweathermap.org/data/2.5/weather?q=pemberton,ca&units=imperial&appid=InsertKey"
Ust-Koksa,RU,50.27,85.61,-18.25,66,0,1.9,"http://api.openweathermap.org/data/2.5/weather?q=ust-koksa,ru&units=imperial&appid=InsertKey"
Deputatskiy,RU,69.3,139.9,-29.95,47,32,2.84,"http://api.openweathermap.org/data/2.5/weather?q=deputatskiy,ru&units=imperial&appid=InsertKey"
Labuhan,ID,-6.88,112.21,80.3,100,76,7.31,"http://api.openweathermap.org/data/2.5/weather?q=labuhan,id&units=imperial&appid=InsertKey"
Varhaug,NO,58.61,5.65,37.4,100,20,16.11,"http://api.openweathermap.org/data/2.5/weather?q=varhaug,no&units=imperial&appid=InsertKey"
Fortuna,US,40.6,-124.16,57.2,67,1,8.05,"http://api.openweathermap.org/data/2.5/weather?q=fortuna,us&units=imperial&appid=InsertKey"
Tamsweg,AT,47.13,13.81,32.0,83,75,2.24,"http://api.openweathermap.org/data/2.5/weather?q=tamsweg,at&units=imperial&appid=InsertKey"
Tomohon,ID,1.33,124.84,77.0,94,20,2.24,"http://api.openweathermap.org/data/2.5/weather?q=tomohon,id&units=imperial&appid=InsertKey"
Beyneu,KZ,45.32,55.2,11.63,85,0,6.82,"http://api.openweathermap.org/data/2.5/weather?q=beyneu,kz&units=imperial&appid=InsertKey"
Dhidhdhoo,MV,6.88,73.1,81.38,100,0,3.24,"http://api.openweathermap.org/data/2.5/weather?q=dhidhdhoo,mv&units=imperial&appid=InsertKey"
Yairipok,IN,24.67,94.07,48.67,87,0,3.29,"http://api.openweathermap.org/data/2.5/weather?q=yairipok,in&units=imperial&appid=InsertKey"
Shellbrook,CA,53.22,-106.4,32.0,93,20,3.36,"http://api.openweathermap.org/data/2.5/weather?q=shellbrook,ca&units=imperial&appid=InsertKey"
Shenjiamen,CN,29.96,122.3,53.75,100,88,17.6,"http://api.openweathermap.org/data/2.5/weather?q=shenjiamen,cn&units=imperial&appid=InsertKey"
Tabas,IR,33.6,56.92,33.91,80,92,2.62,"http://api.openweathermap.org/data/2.5/weather?q=tabas,ir&units=imperial&appid=InsertKey"
Tabuk,SA,28.38,36.58,55.4,54,0,10.29,"http://api.openweathermap.org/data/2.5/weather?q=tabuk,sa&units=imperial&appid=InsertKey"
Vila Franca do Campo,PT,37.72,-25.43,60.8,93,40,3.36,"http://api.openweathermap.org/data/2.5/weather?q=vila franca do campo,pt&units=imperial&appid=InsertKey"
Gravdal,NO,68.12,13.5,39.26,100,88,6.87,"http://api.openweathermap.org/data/2.5/weather?q=gravdal,no&units=imperial&appid=InsertKey"
Amberley,NZ,-43.17,172.73,60.8,82,80,12.75,"http://api.openweathermap.org/data/2.5/weather?q=amberley,nz&units=imperial&appid=InsertKey"
Gimbi,ET,9.17,35.83,49.61,69,0,2.57,"http://api.openweathermap.org/data/2.5/weather?q=gimbi,et&units=imperial&appid=InsertKey"
Kupang,ID,-10.17,123.58,77.0,94,20,4.52,"http://api.openweathermap.org/data/2.5/weather?q=kupang,id&units=imperial&appid=InsertKey"
Sorland,NO,67.67,12.69,39.31,100,56,6.82,"http://api.openweathermap.org/data/2.5/weather?q=sorland,no&units=imperial&appid=InsertKey"
Pevek,RU,69.7,170.31,17.84,86,88,24.76,"http://api.openweathermap.org/data/2.5/weather?q=pevek,ru&units=imperial&appid=InsertKey"
Xiuyan,CN,40.29,123.27,-10.78,72,20,2.57,"http://api.openweathermap.org/data/2.5/weather?q=xiuyan,cn&units=imperial&appid=InsertKey"
Yulara,AU,-25.24,130.99,73.4,69,0,8.05,"http://api.openweathermap.org/data/2.5/weather?q=yulara,au&units=imperial&appid=InsertKey"
Jimo,CN,36.39,120.46,28.4,63,0,4.47,"http://api.openweathermap.org/data/2.5/weather?q=jimo,cn&units=imperial&appid=InsertKey"
Wodonga,AU,-36.12,146.88,76.69,54,92,9.44,"http://api.openweathermap.org/data/2.5/weather?q=wodonga,au&units=imperial&appid=InsertKey"
Half Moon Bay,US,37.46,-122.43,61.29,42,1,8.05,"http://api.openweathermap.org/data/2.5/weather?q=half moon bay,us&units=imperial&appid=InsertKey"
Little Current,CA,45.98,-81.92,5.0,84,1,9.17,"http://api.openweathermap.org/data/2.5/weather?q=little current,ca&units=imperial&appid=InsertKey"
Khrebtovaya,RU,56.7,104.25,-3.94,75,64,4.52,"http://api.openweathermap.org/data/2.5/weather?q=khrebtovaya,ru&units=imperial&appid=InsertKey"
Saint-Pierre,PM,46.77,-56.17,44.6,100,90,27.51,"http://api.openweathermap.org/data/2.5/weather?q=saint-pierre,pm&units=imperial&appid=InsertKey"
Ligayan,PH,4.65,119.47,81.11,100,64,4.03,"http://api.openweathermap.org/data/2.5/weather?q=ligayan,ph&units=imperial&appid=InsertKey"
Springbok,ZA,-29.66,17.89,49.88,80,0,3.51,"http://api.openweathermap.org/data/2.5/weather?q=springbok,za&units=imperial&appid=InsertKey"
Terpinnya,UA,46.97,35.42,42.68,93,0,9.28,"http://api.openweathermap.org/data/2.5/weather?q=terpinnya,ua&units=imperial&appid=InsertKey"
Zunyi,CN,27.69,106.91,34.09,93,44,3.13,"http://api.openweathermap.org/data/2.5/weather?q=zunyi,cn&units=imperial&appid=InsertKey"
Chalons-en-Champagne,FR,48.95,4.37,47.37,87,0,16.11,"http://api.openweathermap.org/data/2.5/weather?q=chalons-en-champagne,fr&units=imperial&appid=InsertKey"
Khorixas,NA,-20.37,14.97,57.49,85,0,2.84,"http://api.openweathermap.org/data/2.5/weather?q=khorixas,na&units=imperial&appid=InsertKey"
Kavaratti,IN,10.57,72.64,78.82,100,56,7.09,"http://api.openweathermap.org/data/2.5/weather?q=kavaratti,in&units=imperial&appid=InsertKey"
Ayan,RU,56.45,138.17,-12.04,100,0,8.84,"http://api.openweathermap.org/data/2.5/weather?q=ayan,ru&units=imperial&appid=InsertKey"
Bogoslovka,RU,53.21,44.8,36.07,94,92,10.96,"http://api.openweathermap.org/data/2.5/weather?q=bogoslovka,ru&units=imperial&appid=InsertKey"
Mecca,SA,21.43,39.83,77.0,69,0,2.73,"http://api.openweathermap.org/data/2.5/weather?q=mecca,sa&units=imperial&appid=InsertKey"
Andra,RU,62.51,65.89,11.81,83,68,11.97,"http://api.openweathermap.org/data/2.5/weather?q=andra,ru&units=imperial&appid=InsertKey"
Akdepe,TM,42.06,59.38,16.05,92,90,6.93,"http://api.openweathermap.org/data/2.5/weather?q=akdepe,tm&units=imperial&appid=InsertKey"
Kishni,IN,27.02,79.26,53.62,91,0,6.42,"http://api.openweathermap.org/data/2.5/weather?q=kishni,in&units=imperial&appid=InsertKey"
Barra Patuca,HN,15.8,-84.28,77.69,84,92,14.32,"http://api.openweathermap.org/data/2.5/weather?q=barra patuca,hn&units=imperial&appid=InsertKey"
Channel-Port aux Basques,CA,47.57,-59.14,43.31,93,92,2.51,"http://api.openweathermap.org/data/2.5/weather?q=channel-port aux basques,ca&units=imperial&appid=InsertKey"
Lashio,MM,22.93,97.75,49.84,97,0,1.9,"http://api.openweathermap.org/data/2.5/weather?q=lashio,mm&units=imperial&appid=InsertKey"
Tungor,RU,53.38,142.96,18.02,92,64,16.15,"http://api.openweathermap.org/data/2.5/weather?q=tungor,ru&units=imperial&appid=InsertKey"
Longido,TZ,-2.73,36.68,58.07,84,0,4.52,"http://api.openweathermap.org/data/2.5/weather?q=longido,tz&units=imperial&appid=InsertKey"
Pingliang,CN,35.54,106.69,17.12,88,56,2.01,"http://api.openweathermap.org/data/2.5/weather?q=pingliang,cn&units=imperial&appid=InsertKey"
Tailai,CN,46.38,123.4,-13.3,62,44,6.26,"http://api.openweathermap.org/data/2.5/weather?q=tailai,cn&units=imperial&appid=InsertKey"
Batticaloa,LK,7.71,81.69,74.54,100,56,3.36,"http://api.openweathermap.org/data/2.5/weather?q=batticaloa,lk&units=imperial&appid=InsertKey"
Hasaki,JP,35.73,140.83,28.0,51,20,9.17,"http://api.openweathermap.org/data/2.5/weather?q=hasaki,jp&units=imperial&appid=InsertKey"
Zhigansk,RU,66.77,123.37,-25.59,40,68,4.29,"http://api.openweathermap.org/data/2.5/weather?q=zhigansk,ru&units=imperial&appid=InsertKey"
Samarai,PG,-10.62,150.67,82.69,100,44,15.48,"http://api.openweathermap.org/data/2.5/weather?q=samarai,pg&units=imperial&appid=InsertKey"
Ilorin,NG,8.5,4.55,70.09,48,12,5.3,"http://api.openweathermap.org/data/2.5/weather?q=ilorin,ng&units=imperial&appid=InsertKey"
Great Falls,US,47.5,-111.3,37.76,69,1,10.29,"http://api.openweathermap.org/data/2.5/weather?q=great falls,us&units=imperial&appid=InsertKey"
Sola,VU,-13.88,167.55,82.37,99,64,3.85,"http://api.openweathermap.org/data/2.5/weather?q=sola,vu&units=imperial&appid=InsertKey"
Nome,US,64.5,-165.41,32.0,91,90,9.17,"http://api.openweathermap.org/data/2.5/weather?q=nome,us&units=imperial&appid=InsertKey"
Opuwo,NA,-18.06,13.84,55.91,46,0,4.52,"http://api.openweathermap.org/data/2.5/weather?q=opuwo,na&units=imperial&appid=InsertKey"
Santa Barbara,MX,26.8,-105.82,56.14,56,64,3.36,"http://api.openweathermap.org/data/2.5/weather?q=santa barbara,mx&units=imperial&appid=InsertKey"
Port Hardy,CA,50.7,-127.42,44.6,87,75,4.7,"http://api.openweathermap.org/data/2.5/weather?q=port hardy,ca&units=imperial&appid=InsertKey"
Lazarev,RU,52.23,141.51,18.74,84,68,5.41,"http://api.openweathermap.org/data/2.5/weather?q=lazarev,ru&units=imperial&appid=InsertKey"
Bambanglipuro,ID,-7.95,110.28,73.46,96,76,3.8,"http://api.openweathermap.org/data/2.5/weather?q=bambanglipuro,id&units=imperial&appid=InsertKey"
Tigil,RU,57.8,158.67,-1.47,68,0,6.6,"http://api.openweathermap.org/data/2.5/weather?q=tigil,ru&units=imperial&appid=InsertKey"
Karasjok,NO,69.47,25.51,23.0,92,75,5.82,"http://api.openweathermap.org/data/2.5/weather?q=karasjok,no&units=imperial&appid=InsertKey"
Inta,RU,66.03,60.17,21.17,83,80,7.76,"http://api.openweathermap.org/data/2.5/weather?q=inta,ru&units=imperial&appid=InsertKey"
Newport,US,41.49,-71.31,25.63,49,1,27.51,"http://api.openweathermap.org/data/2.5/weather?q=newport,us&units=imperial&appid=InsertKey"
Xinqing,CN,48.23,129.5,-5.65,54,44,3.85,"http://api.openweathermap.org/data/2.5/weather?q=xinqing,cn&units=imperial&appid=InsertKey"
Linxi,CN,39.7,118.43,17.26,56,76,3.02,"http://api.openweathermap.org/data/2.5/weather?q=linxi,cn&units=imperial&appid=InsertKey"
Brae,GB,60.4,-1.35,37.67,100,92,5.82,"http://api.openweathermap.org/data/2.5/weather?q=brae,gb&units=imperial&appid=InsertKey"
Didao,CN,45.37,130.8,-5.38,68,0,3.85,"http://api.openweathermap.org/data/2.5/weather?q=didao,cn&units=imperial&appid=InsertKey"
Sibenik,HR,43.73,15.91,45.36,93,88,5.82,"http://api.openweathermap.org/data/2.5/weather?q=sibenik,hr&units=imperial&appid=InsertKey"
Lagoa,PT,39.05,-27.98,64.69,100,88,14.58,"http://api.openweathermap.org/data/2.5/weather?q=lagoa,pt&units=imperial&appid=InsertKey"
Kindu,CD,-2.95,25.95,69.37,100,64,2.13,"http://api.openweathermap.org/data/2.5/weather?q=kindu,cd&units=imperial&appid=InsertKey"
Nantucket,US,41.28,-70.1,25.52,49,1,27.51,"http://api.openweathermap.org/data/2.5/weather?q=nantucket,us&units=imperial&appid=InsertKey"
Vestmanna,FO,62.16,-7.17,37.4,93,32,1.12,"http://api.openweathermap.org/data/2.5/weather?q=vestmanna,fo&units=imperial&appid=InsertKey"
Palmer,US,42.16,-72.33,22.53,57,40,27.51,"http://api.openweathermap.org/data/2.5/weather?q=palmer,us&units=imperial&appid=InsertKey"
Sisimiut,GL,66.94,-53.67,15.95,100,76,2.84,"http://api.openweathermap.org/data/2.5/weather?q=sisimiut,gl&units=imperial&appid=InsertKey"
Pokhara,NP,28.23,83.98,43.09,68,0,3.29,"http://api.openweathermap.org/data/2.5/weather?q=pokhara,np&units=imperial&appid=InsertKey"
Mandalgovi,MN,45.76,106.27,2.09,76,64,9.66,"http://api.openweathermap.org/data/2.5/weather?q=mandalgovi,mn&units=imperial&appid=InsertKey"
Bozoum,CF,6.32,16.38,65.41,44,20,4.52,"http://api.openweathermap.org/data/2.5/weather?q=bozoum,cf&units=imperial&appid=InsertKey"
Waipawa,NZ,-41.41,175.52,66.2,55,76,13.87,"http://api.openweathermap.org/data/2.5/weather?q=waipawa,nz&units=imperial&appid=InsertKey"
Orange Walk,BZ,18.08,-88.56,77.94,65,20,5.82,"http://api.openweathermap.org/data/2.5/weather?q=orange walk,bz&units=imperial&appid=InsertKey"
Plouzane,FR,48.38,-4.62,46.83,65,75,18.34,"http://api.openweathermap.org/data/2.5/weather?q=plouzane,fr&units=imperial&appid=InsertKey"
Sinnamary,GF,5.38,-52.95,78.95,100,88,7.94,"http://api.openweathermap.org/data/2.5/weather?q=sinnamary,gf&units=imperial&appid=InsertKey"
West Wendover,US,40.74,-114.07,21.2,79,90,3.36,"http://api.openweathermap.org/data/2.5/weather?q=west wendover,us&units=imperial&appid=InsertKey"
Bollnas,SE,61.35,16.39,32.24,86,68,9.33,"http://api.openweathermap.org/data/2.5/weather?q=bollnas,se&units=imperial&appid=InsertKey"
Vire,FR,48.83,-0.88,44.6,75,75,21.92,"http://api.openweathermap.org/data/2.5/weather?q=vire,fr&units=imperial&appid=InsertKey"
Tiarei,PF,-17.53,-149.33,87.8,66,20,12.75,"http://api.openweathermap.org/data/2.5/weather?q=tiarei,pf&units=imperial&appid=InsertKey"
Ambilobe,MG,-13.2,49.05,72.92,100,76,4.41,"http://api.openweathermap.org/data/2.5/weather?q=ambilobe,mg&units=imperial&appid=InsertKey"
Natal,BR,-5.79,-35.21,80.6,74,40,10.29,"http://api.openweathermap.org/data/2.5/weather?q=natal,br&units=imperial&appid=InsertKey"
Nouadhibou,MR,20.93,-17.03,62.6,67,0,19.46,"http://api.openweathermap.org/data/2.5/weather?q=nouadhibou,mr&units=imperial&appid=InsertKey"
Urengoy,RU,65.97,78.37,-4.66,82,36,14.09,"http://api.openweathermap.org/data/2.5/weather?q=urengoy,ru&units=imperial&appid=InsertKey"
Ahipara,NZ,-35.17,173.17,70.54,73,0,16.22,"http://api.openweathermap.org/data/2.5/weather?q=ahipara,nz&units=imperial&appid=InsertKey"
Kudahuvadhoo,MV,2.67,72.89,81.29,100,0,4.41,"http://api.openweathermap.org/data/2.5/weather?q=kudahuvadhoo,mv&units=imperial&appid=InsertKey"
Ajdabiya,LY,30.76,20.23,43.27,81,0,2.73,"http://api.openweathermap.org/data/2.5/weather?q=ajdabiya,ly&units=imperial&appid=InsertKey"
Yekaterinovka,RU,52.05,44.35,34.81,92,92,12.91,"http://api.openweathermap.org/data/2.5/weather?q=yekaterinovka,ru&units=imperial&appid=InsertKey"
Osypenko,UA,46.91,36.83,39.31,98,44,4.81,"http://api.openweathermap.org/data/2.5/weather?q=osypenko,ua&units=imperial&appid=InsertKey"
Muisne,EC,0.6,-80.03,77.42,80,92,8.32,"http://api.openweathermap.org/data/2.5/weather?q=muisne,ec&units=imperial&appid=InsertKey"
Dembi Dolo,ET,8.53,34.8,57.98,76,0,2.8,"http://api.openweathermap.org/data/2.5/weather?q=dembi dolo,et&units=imperial&appid=InsertKey"
Melita,CA,49.27,-101.0,31.12,77,88,9.55,"http://api.openweathermap.org/data/2.5/weather?q=melita,ca&units=imperial&appid=InsertKey"
Shache,CN,38.42,77.24,20.09,85,64,2.91,"http://api.openweathermap.org/data/2.5/weather?q=shache,cn&units=imperial&appid=InsertKey"
Itapirapua,BR,-15.82,-50.61,71.03,95,88,2.73,"http://api.openweathermap.org/data/2.5/weather?q=itapirapua,br&units=imperial&appid=InsertKey"
Kahului,US,20.89,-156.47,75.02,54,40,17.22,"http://api.openweathermap.org/data/2.5/weather?q=kahului,us&units=imperial&appid=InsertKey"
Dunedin,NZ,-45.87,170.5,59.96,81,20,6.31,"http://api.openweathermap.org/data/2.5/weather?q=dunedin,nz&units=imperial&appid=InsertKey"
Dicabisagan,PH,17.08,122.42,74.32,100,92,17.67,"http://api.openweathermap.org/data/2.5/weather?q=dicabisagan,ph&units=imperial&appid=InsertKey"
Esperance,AU,-33.87,121.9,64.96,83,56,4.63,"http://api.openweathermap.org/data/2.5/weather?q=esperance,au&units=imperial&appid=InsertKey"
Rakaia,NZ,-43.75,172.02,60.8,82,64,12.75,"http://api.openweathermap.org/data/2.5/weather?q=rakaia,nz&units=imperial&appid=InsertKey"
Satipo,PE,-11.25,-74.64,69.46,93,8,1.05,"http://api.openweathermap.org/data/2.5/weather?q=satipo,pe&units=imperial&appid=InsertKey"
Quetigny,FR,47.32,5.12,41.97,93,90,18.34,"http://api.openweathermap.org/data/2.5/weather?q=quetigny,fr&units=imperial&appid=InsertKey"
Alofi,NU,-19.06,-169.92,82.4,65,92,9.17,"http://api.openweathermap.org/data/2.5/weather?q=alofi,nu&units=imperial&appid=InsertKey"
Ocampo,MX,21.65,-101.5,59.78,27,20,6.82,"http://api.openweathermap.org/data/2.5/weather?q=ocampo,mx&units=imperial&appid=InsertKey"
Namatanai,PG,-3.67,152.43,82.37,100,80,15.7,"http://api.openweathermap.org/data/2.5/weather?q=namatanai,pg&units=imperial&appid=InsertKey"
Lodwar,KE,3.12,35.6,63.79,56,0,2.57,"http://api.openweathermap.org/data/2.5/weather?q=lodwar,ke&units=imperial&appid=InsertKey"
Alice Springs,AU,-23.7,133.88,73.4,64,75,12.75,"http://api.openweathermap.org/data/2.5/weather?q=alice springs,au&units=imperial&appid=InsertKey"
Batemans Bay,AU,-35.72,150.18,85.34,48,12,5.14,"http://api.openweathermap.org/data/2.5/weather?q=batemans bay,au&units=imperial&appid=InsertKey"
Zarand,IR,30.81,56.56,12.49,59,0,2.51,"http://api.openweathermap.org/data/2.5/weather?q=zarand,ir&units=imperial&appid=InsertKey"
