City,Country Code,Latitude,Longitude,Temperature,Humidity,Cloudiness,Wind Speed,URL
Bethel,US,41.37,-73.41,26.4,35,1,18.34,"http://api.openweathermap.org/data/2.5/weather?q=bethel,us&units=imperial&appid=InsertKey"
Cape Town,ZA,-33.93,18.42,59.0,93,75,4.7,"http://api.openweathermap.org/data/2.5/weather?q=cape town,za&units=imperial&appid=InsertKey"
Hamilton,BM,32.29,-64.78,68.0,64,75,27.51,"http://api.openweathermap.org/data/2.5/weather?q=hamilton,bm&units=imperial&appid=InsertKey"
Touros,BR,-5.2,-35.46,81.04,79,44,11.88,"http://api.openweathermap.org/data/2.5/weather?q=touros,br&units=imperial&appid=InsertKey"
Tateyama,JP,34.98,139.87,40.91,41,20,17.22,"http://api.openweathermap.org/data/2.5/weather?q=tateyama,jp&units=imperial&appid=InsertKey"
San Patricio,MX,19.22,-104.7,84.2,66,75,6.93,"http://api.openweathermap.org/data/2.5/weather?q=san patricio,mx&units=imperial&appid=InsertKey"
Saldanha,ZA,-33.01,17.94,60.8,82,80,3.36,"http://api.openweathermap.org/data/2.5/weather?q=saldanha,za&units=imperial&appid=InsertKey"
Champerico,GT,14.3,-91.92,86.0,55,40,13.87,"http://api.openweathermap.org/data/2.5/weather?q=champerico,gt&units=imperial&appid=InsertKey"
Lebu,CL,-37.62,-73.65,57.69,95,0,10.42,"http://api.openweathermap.org/data/2.5/weather?q=lebu,cl&units=imperial&appid=InsertKey"
Takoradi,GH,4.88,-1.76,80.23,100,0,4.72,"http://api.openweathermap.org/data/2.5/weather?q=takoradi,gh&units=imperial&appid=InsertKey"
Ushuaia,AR,-54.8,-68.3,60.8,38,40,11.41,"http://api.openweathermap.org/data/2.5/weather?q=ushuaia,ar&units=imperial&appid=InsertKey"
Kalmunai,LK,7.42,81.82,70.11,99,0,2.82,"http://api.openweathermap.org/data/2.5/weather?q=kalmunai,lk&units=imperial&appid=InsertKey"
Marfino,RU,55.7,37.38,33.8,91,44,4.47,"http://api.openweathermap.org/data/2.5/weather?q=marfino,ru&units=imperial&appid=InsertKey"
Albany,AU,-35.02,117.89,60.66,87,88,4.94,"http://api.openweathermap.org/data/2.5/weather?q=albany,au&units=imperial&appid=InsertKey"
Marsa Matruh,EG,31.35,27.25,59.0,77,20,9.17,"http://api.openweathermap.org/data/2.5/weather?q=marsa matruh,eg&units=imperial&appid=InsertKey"
Nuuk,GL,64.18,-51.72,21.2,79,75,2.24,"http://api.openweathermap.org/data/2.5/weather?q=nuuk,gl&units=imperial&appid=InsertKey"
Georgetown,SH,-7.93,-14.42,73.4,94,75,14.99,"http://api.openweathermap.org/data/2.5/weather?q=georgetown,sh&units=imperial&appid=InsertKey"
Sorong,ID,-0.88,131.25,80.59,100,32,8.19,"http://api.openweathermap.org/data/2.5/weather?q=sorong,id&units=imperial&appid=InsertKey"
Pevek,RU,69.7,170.31,16.42,87,88,23.4,"http://api.openweathermap.org/data/2.5/weather?q=pevek,ru&units=imperial&appid=InsertKey"
Port Hardy,CA,50.7,-127.42,44.6,87,75,2.24,"http://api.openweathermap.org/data/2.5/weather?q=port hardy,ca&units=imperial&appid=InsertKey"
Batagay,RU,67.63,134.63,-59.54,0,20,2.71,"http://api.openweathermap.org/data/2.5/weather?q=batagay,ru&units=imperial&appid=InsertKey"
Sibolga,ID,1.74,98.78,68.04,100,80,1.7,"http://api.openweathermap.org/data/2.5/weather?q=sibolga,id&units=imperial&appid=InsertKey"
Mar del Plata,AR,-38.0,-57.56,69.8,73,75,6.93,"http://api.openweathermap.org/data/2.5/weather?q=mar del plata,ar&units=imperial&appid=InsertKey"
Bambanglipuro,ID,-7.95,110.28,70.47,100,92,2.59,"http://api.openweathermap.org/data/2.5/weather?q=bambanglipuro,id&units=imperial&appid=InsertKey"
New Norfolk,AU,-42.78,147.06,71.6,56,40,5.82,"http://api.openweathermap.org/data/2.5/weather?q=new norfolk,au&units=imperial&appid=InsertKey"
Carutapera,BR,-1.2,-46.02,82.66,77,68,8.86,"http://api.openweathermap.org/data/2.5/weather?q=carutapera,br&units=imperial&appid=InsertKey"
Puerto Ayora,EC,-0.74,-90.35,77.0,61,20,19.46,"http://api.openweathermap.org/data/2.5/weather?q=puerto ayora,ec&units=imperial&appid=InsertKey"
Kodiak,US,57.79,-152.41,42.8,70,40,5.82,"http://api.openweathermap.org/data/2.5/weather?q=kodiak,us&units=imperial&appid=InsertKey"
Kavieng,PG,-2.57,150.8,81.4,100,88,10.87,"http://api.openweathermap.org/data/2.5/weather?q=kavieng,pg&units=imperial&appid=InsertKey"
Cap-aux-Meules,CA,47.38,-61.86,42.8,93,90,25.28,"http://api.openweathermap.org/data/2.5/weather?q=cap-aux-meules,ca&units=imperial&appid=InsertKey"
Portland,AU,-38.33,141.6,61.24,100,92,12.21,"http://api.openweathermap.org/data/2.5/weather?q=portland,au&units=imperial&appid=InsertKey"
Simimbaan,PH,17.12,121.58,68.31,100,68,4.61,"http://api.openweathermap.org/data/2.5/weather?q=simimbaan,ph&units=imperial&appid=InsertKey"
Punta Arenas,CL,-53.15,-70.92,59.0,54,75,32.21,"http://api.openweathermap.org/data/2.5/weather?q=punta arenas,cl&units=imperial&appid=InsertKey"
Armizonskoye,RU,55.95,67.67,-3.56,78,32,7.4,"http://api.openweathermap.org/data/2.5/weather?q=armizonskoye,ru&units=imperial&appid=InsertKey"
San Quintin,MX,30.48,-115.95,72.09,29,0,4.5,"http://api.openweathermap.org/data/2.5/weather?q=san quintin,mx&units=imperial&appid=InsertKey"
Busselton,AU,-33.65,115.33,63.85,100,100,7.4,"http://api.openweathermap.org/data/2.5/weather?q=busselton,au&units=imperial&appid=InsertKey"
Arraial do Cabo,BR,-22.97,-42.03,75.2,64,75,11.41,"http://api.openweathermap.org/data/2.5/weather?q=arraial do cabo,br&units=imperial&appid=InsertKey"
Castro,CL,-42.47,-73.77,56.2,98,92,9.75,"http://api.openweathermap.org/data/2.5/weather?q=castro,cl&units=imperial&appid=InsertKey"
Port Hedland,AU,-20.32,118.57,73.4,100,0,6.93,"http://api.openweathermap.org/data/2.5/weather?q=port hedland,au&units=imperial&appid=InsertKey"
Aykhal,RU,66.0,111.5,-23.63,67,64,2.82,"http://api.openweathermap.org/data/2.5/weather?q=aykhal,ru&units=imperial&appid=InsertKey"
Vila Franca do Campo,PT,37.72,-25.43,60.8,93,75,3.36,"http://api.openweathermap.org/data/2.5/weather?q=vila franca do campo,pt&units=imperial&appid=InsertKey"
Thompson,CA,55.74,-97.86,1.4,84,75,3.27,"http://api.openweathermap.org/data/2.5/weather?q=thompson,ca&units=imperial&appid=InsertKey"
Juneau,US,58.3,-134.42,45.64,100,90,25.28,"http://api.openweathermap.org/data/2.5/weather?q=juneau,us&units=imperial&appid=InsertKey"
Shingu,JP,33.73,135.98,45.4,100,0,17.81,"http://api.openweathermap.org/data/2.5/weather?q=shingu,jp&units=imperial&appid=InsertKey"
Severo-Kurilsk,RU,50.68,156.12,31.36,100,88,15.9,"http://api.openweathermap.org/data/2.5/weather?q=severo-kurilsk,ru&units=imperial&appid=InsertKey"
Lobito,AO,-12.35,13.55,69.66,90,68,2.04,"http://api.openweathermap.org/data/2.5/weather?q=lobito,ao&units=imperial&appid=InsertKey"
Rikitea,PF,-23.12,-134.97,76.09,100,12,15.01,"http://api.openweathermap.org/data/2.5/weather?q=rikitea,pf&units=imperial&appid=InsertKey"
Luderitz,NA,-26.65,15.16,68.0,45,0,25.28,"http://api.openweathermap.org/data/2.5/weather?q=luderitz,na&units=imperial&appid=InsertKey"
Linares,CL,-35.85,-71.6,69.07,61,0,3.15,"http://api.openweathermap.org/data/2.5/weather?q=linares,cl&units=imperial&appid=InsertKey"
Bambous Virieux,MU,-20.34,57.76,78.8,88,75,6.93,"http://api.openweathermap.org/data/2.5/weather?q=bambous virieux,mu&units=imperial&appid=InsertKey"
Cayenne,GF,4.93,-52.33,80.6,83,0,9.17,"http://api.openweathermap.org/data/2.5/weather?q=cayenne,gf&units=imperial&appid=InsertKey"
Cuyamel,HN,15.67,-88.2,77.83,83,75,5.82,"http://api.openweathermap.org/data/2.5/weather?q=cuyamel,hn&units=imperial&appid=InsertKey"
Dingle,IE,52.14,-10.27,45.54,100,88,36.37,"http://api.openweathermap.org/data/2.5/weather?q=dingle,ie&units=imperial&appid=InsertKey"
Calama,CL,-22.47,-68.93,75.2,11,0,26.4,"http://api.openweathermap.org/data/2.5/weather?q=calama,cl&units=imperial&appid=InsertKey"
Bluff,NZ,-46.6,168.33,54.13,100,24,10.76,"http://api.openweathermap.org/data/2.5/weather?q=bluff,nz&units=imperial&appid=InsertKey"
Karimganj,IN,24.87,92.35,59.94,91,0,3.6,"http://api.openweathermap.org/data/2.5/weather?q=karimganj,in&units=imperial&appid=InsertKey"
Dutse,NG,11.76,9.34,75.73,39,0,10.98,"http://api.openweathermap.org/data/2.5/weather?q=dutse,ng&units=imperial&appid=InsertKey"
Laguna,BR,-28.48,-48.78,76.0,83,0,25.52,"http://api.openweathermap.org/data/2.5/weather?q=laguna,br&units=imperial&appid=InsertKey"
Broome,AU,-17.97,122.23,86.0,66,24,13.87,"http://api.openweathermap.org/data/2.5/weather?q=broome,au&units=imperial&appid=InsertKey"
Tual,ID,-5.67,132.75,84.69,100,56,7.4,"http://api.openweathermap.org/data/2.5/weather?q=tual,id&units=imperial&appid=InsertKey"
Te Anau,NZ,-45.42,167.72,51.16,94,68,3.6,"http://api.openweathermap.org/data/2.5/weather?q=te anau,nz&units=imperial&appid=InsertKey"
Saskylakh,RU,71.92,114.08,-31.01,53,64,4.16,"http://api.openweathermap.org/data/2.5/weather?q=saskylakh,ru&units=imperial&appid=InsertKey"
Namtsy,RU,62.72,129.67,-36.64,72,80,5.28,"http://api.openweathermap.org/data/2.5/weather?q=namtsy,ru&units=imperial&appid=InsertKey"
Vaini,TO,-21.2,-175.2,78.8,65,40,1.12,"http://api.openweathermap.org/data/2.5/weather?q=vaini,to&units=imperial&appid=InsertKey"
Flinders,AU,-34.58,150.86,82.4,39,0,9.17,"http://api.openweathermap.org/data/2.5/weather?q=flinders,au&units=imperial&appid=InsertKey"
Waingapu,ID,-9.66,120.26,70.78,100,8,2.48,"http://api.openweathermap.org/data/2.5/weather?q=waingapu,id&units=imperial&appid=InsertKey"
Ahuimanu,US,21.44,-157.84,76.1,50,40,14.99,"http://api.openweathermap.org/data/2.5/weather?q=ahuimanu,us&units=imperial&appid=InsertKey"
Tuktoyaktuk,CA,69.45,-133.04,-0.41,84,20,9.17,"http://api.openweathermap.org/data/2.5/weather?q=tuktoyaktuk,ca&units=imperial&appid=InsertKey"
Jamestown,SH,-15.94,-5.72,69.97,100,0,12.77,"http://api.openweathermap.org/data/2.5/weather?q=jamestown,sh&units=imperial&appid=InsertKey"
Fairbanks,US,64.84,-147.72,38.55,41,1,13.87,"http://api.openweathermap.org/data/2.5/weather?q=fairbanks,us&units=imperial&appid=InsertKey"
Hilo,US,19.73,-155.09,67.17,73,40,12.75,"http://api.openweathermap.org/data/2.5/weather?q=hilo,us&units=imperial&appid=InsertKey"
Inhambane,MZ,-23.86,35.38,77.98,95,64,17.13,"http://api.openweathermap.org/data/2.5/weather?q=inhambane,mz&units=imperial&appid=InsertKey"
Mayo,CA,63.59,-135.9,19.4,92,90,13.87,"http://api.openweathermap.org/data/2.5/weather?q=mayo,ca&units=imperial&appid=InsertKey"
Kahului,US,20.89,-156.47,73.33,60,75,16.11,"http://api.openweathermap.org/data/2.5/weather?q=kahului,us&units=imperial&appid=InsertKey"
Berlevag,NO,70.86,29.09,26.42,92,75,10.29,"http://api.openweathermap.org/data/2.5/weather?q=berlevag,no&units=imperial&appid=InsertKey"
Victoria,SC,-4.62,55.45,78.8,88,40,5.82,"http://api.openweathermap.org/data/2.5/weather?q=victoria,sc&units=imperial&appid=InsertKey"
Kapaa,US,22.08,-159.32,74.39,56,75,21.92,"http://api.openweathermap.org/data/2.5/weather?q=kapaa,us&units=imperial&appid=InsertKey"
Boa Vista,BR,2.82,-60.67,91.4,49,20,13.87,"http://api.openweathermap.org/data/2.5/weather?q=boa vista,br&units=imperial&appid=InsertKey"
Provideniya,RU,64.38,-173.3,23.0,62,75,13.42,"http://api.openweathermap.org/data/2.5/weather?q=provideniya,ru&units=imperial&appid=InsertKey"
Camacha,PT,33.08,-16.33,63.37,77,40,9.17,"http://api.openweathermap.org/data/2.5/weather?q=camacha,pt&units=imperial&appid=InsertKey"
Saint George,BM,32.38,-64.68,68.0,64,75,27.51,"http://api.openweathermap.org/data/2.5/weather?q=saint george,bm&units=imperial&appid=InsertKey"
Gazojak,TM,41.19,61.4,9.67,98,0,6.17,"http://api.openweathermap.org/data/2.5/weather?q=gazojak,tm&units=imperial&appid=InsertKey"
Hobart,AU,-42.88,147.33,71.6,56,40,5.82,"http://api.openweathermap.org/data/2.5/weather?q=hobart,au&units=imperial&appid=InsertKey"
Bundaberg,AU,-24.85,152.35,75.96,100,0,12.44,"http://api.openweathermap.org/data/2.5/weather?q=bundaberg,au&units=imperial&appid=InsertKey"
Cabo San Lucas,MX,22.89,-109.91,75.2,60,90,4.7,"http://api.openweathermap.org/data/2.5/weather?q=cabo san lucas,mx&units=imperial&appid=InsertKey"
Atuona,PF,-9.8,-139.03,79.74,100,44,10.54,"http://api.openweathermap.org/data/2.5/weather?q=atuona,pf&units=imperial&appid=InsertKey"
Rio Grande,BR,-32.03,-52.1,82.4,65,75,13.87,"http://api.openweathermap.org/data/2.5/weather?q=rio grande,br&units=imperial&appid=InsertKey"
Yellowknife,CA,62.46,-114.35,15.8,92,90,10.29,"http://api.openweathermap.org/data/2.5/weather?q=yellowknife,ca&units=imperial&appid=InsertKey"
Dehri,IN,24.87,84.18,53.46,85,0,2.59,"http://api.openweathermap.org/data/2.5/weather?q=dehri,in&units=imperial&appid=InsertKey"
Madera,MX,29.2,-108.12,54.81,69,0,7.18,"http://api.openweathermap.org/data/2.5/weather?q=madera,mx&units=imperial&appid=InsertKey"
Talcahuano,CL,-36.72,-73.12,66.2,68,0,12.75,"http://api.openweathermap.org/data/2.5/weather?q=talcahuano,cl&units=imperial&appid=InsertKey"
Orlik,RU,52.52,99.83,-7.12,73,44,2.93,"http://api.openweathermap.org/data/2.5/weather?q=orlik,ru&units=imperial&appid=InsertKey"
Korla,CN,41.76,86.15,12.06,72,48,3.27,"http://api.openweathermap.org/data/2.5/weather?q=korla,cn&units=imperial&appid=InsertKey"
Vardo,NO,70.37,31.11,27.07,92,75,12.75,"http://api.openweathermap.org/data/2.5/weather?q=vardo,no&units=imperial&appid=InsertKey"
Norman Wells,CA,65.28,-126.83,5.0,84,40,5.82,"http://api.openweathermap.org/data/2.5/weather?q=norman wells,ca&units=imperial&appid=InsertKey"
Marabba,SD,12.35,32.18,72.31,31,0,9.42,"http://api.openweathermap.org/data/2.5/weather?q=marabba,sd&units=imperial&appid=InsertKey"
Alhaurin de la Torre,ES,36.66,-4.56,46.4,87,0,4.7,"http://api.openweathermap.org/data/2.5/weather?q=alhaurin de la torre,es&units=imperial&appid=InsertKey"
Nizwa,OM,22.93,57.53,53.91,58,24,3.04,"http://api.openweathermap.org/data/2.5/weather?q=nizwa,om&units=imperial&appid=InsertKey"
Dikson,RU,73.51,80.55,-8.24,100,92,21.61,"http://api.openweathermap.org/data/2.5/weather?q=dikson,ru&units=imperial&appid=InsertKey"
Pervomayskiy,RU,53.25,40.29,33.12,98,92,5.17,"http://api.openweathermap.org/data/2.5/weather?q=pervomayskiy,ru&units=imperial&appid=InsertKey"
Hermanus,ZA,-34.42,19.23,57.37,96,92,2.82,"http://api.openweathermap.org/data/2.5/weather?q=hermanus,za&units=imperial&appid=InsertKey"
Oytal,KZ,42.91,73.27,7.11,81,48,2.26,"http://api.openweathermap.org/data/2.5/weather?q=oytal,kz&units=imperial&appid=InsertKey"
Gornoye Loo,RU,43.71,39.6,46.4,49,0,2.59,"http://api.openweathermap.org/data/2.5/weather?q=gornoye loo,ru&units=imperial&appid=InsertKey"
Peleduy,RU,59.63,112.74,-12.38,76,44,4.61,"http://api.openweathermap.org/data/2.5/weather?q=peleduy,ru&units=imperial&appid=InsertKey"
Gotsu,JP,35.0,132.22,43.42,89,88,10.65,"http://api.openweathermap.org/data/2.5/weather?q=gotsu,jp&units=imperial&appid=InsertKey"
Avarua,CK,-21.21,-159.78,82.4,78,75,5.82,"http://api.openweathermap.org/data/2.5/weather?q=avarua,ck&units=imperial&appid=InsertKey"
Padang,ID,-0.95,100.35,79.47,100,20,6.96,"http://api.openweathermap.org/data/2.5/weather?q=padang,id&units=imperial&appid=InsertKey"
Katsuura,JP,35.13,140.3,41.2,35,20,11.41,"http://api.openweathermap.org/data/2.5/weather?q=katsuura,jp&units=imperial&appid=InsertKey"
Camopi,GF,3.17,-52.32,79.02,68,56,4.05,"http://api.openweathermap.org/data/2.5/weather?q=camopi,gf&units=imperial&appid=InsertKey"
Geraldton,AU,-28.77,114.6,59.0,93,0,9.17,"http://api.openweathermap.org/data/2.5/weather?q=geraldton,au&units=imperial&appid=InsertKey"
Tessalit,ML,20.2,1.01,67.81,37,0,11.99,"http://api.openweathermap.org/data/2.5/weather?q=tessalit,ml&units=imperial&appid=InsertKey"
Fortuna,US,40.6,-124.16,57.2,58,1,3.36,"http://api.openweathermap.org/data/2.5/weather?q=fortuna,us&units=imperial&appid=InsertKey"
East London,ZA,-33.02,27.91,70.6,100,0,29.55,"http://api.openweathermap.org/data/2.5/weather?q=east london,za&units=imperial&appid=InsertKey"
Tiksi,RU,71.69,128.87,-46.99,0,8,2.26,"http://api.openweathermap.org/data/2.5/weather?q=tiksi,ru&units=imperial&appid=InsertKey"
Foshan,CN,23.03,113.13,59.0,87,90,4.47,"http://api.openweathermap.org/data/2.5/weather?q=foshan,cn&units=imperial&appid=InsertKey"
Gizo,SB,-8.1,156.84,81.72,100,64,22.17,"http://api.openweathermap.org/data/2.5/weather?q=gizo,sb&units=imperial&appid=InsertKey"
Ulaangom,MN,49.98,92.07,-24.94,31,0,0.47,"http://api.openweathermap.org/data/2.5/weather?q=ulaangom,mn&units=imperial&appid=InsertKey"
Meiganga,CM,6.52,14.3,69.57,42,8,5.39,"http://api.openweathermap.org/data/2.5/weather?q=meiganga,cm&units=imperial&appid=InsertKey"
Coffs Harbour,AU,-30.3,153.13,75.2,69,40,14.99,"http://api.openweathermap.org/data/2.5/weather?q=coffs harbour,au&units=imperial&appid=InsertKey"
Salalah,OM,17.02,54.09,69.8,11,0,11.41,"http://api.openweathermap.org/data/2.5/weather?q=salalah,om&units=imperial&appid=InsertKey"
Hailar,CN,49.2,119.7,-23.32,32,44,3.04,"http://api.openweathermap.org/data/2.5/weather?q=hailar,cn&units=imperial&appid=InsertKey"
Mount Gambier,AU,-37.83,140.77,61.74,84,88,5.84,"http://api.openweathermap.org/data/2.5/weather?q=mount gambier,au&units=imperial&appid=InsertKey"
Pushkinskiye Gory,RU,57.02,28.91,33.57,92,80,13.22,"http://api.openweathermap.org/data/2.5/weather?q=pushkinskiye gory,ru&units=imperial&appid=InsertKey"
Dhemaji,IN,27.48,94.58,58.77,94,56,2.82,"http://api.openweathermap.org/data/2.5/weather?q=dhemaji,in&units=imperial&appid=InsertKey"
Puente Grande,MX,20.57,-103.15,71.6,17,75,3.36,"http://api.openweathermap.org/data/2.5/weather?q=puente grande,mx&units=imperial&appid=InsertKey"
Kulhudhuffushi,MV,6.62,73.07,81.54,100,0,2.26,"http://api.openweathermap.org/data/2.5/weather?q=kulhudhuffushi,mv&units=imperial&appid=InsertKey"
San Cristobal,EC,-0.9,-89.62,71.6,83,90,14.99,"http://api.openweathermap.org/data/2.5/weather?q=san cristobal,ec&units=imperial&appid=InsertKey"
Ahipara,NZ,-35.17,173.17,63.85,100,100,16.8,"http://api.openweathermap.org/data/2.5/weather?q=ahipara,nz&units=imperial&appid=InsertKey"
Kisanga,TZ,-7.44,37.7,73.4,83,20,3.49,"http://api.openweathermap.org/data/2.5/weather?q=kisanga,tz&units=imperial&appid=InsertKey"
Esperance,AU,-33.87,121.9,58.86,82,88,3.6,"http://api.openweathermap.org/data/2.5/weather?q=esperance,au&units=imperial&appid=InsertKey"
Klaksvik,FO,62.23,-6.59,35.6,100,20,3.36,"http://api.openweathermap.org/data/2.5/weather?q=klaksvik,fo&units=imperial&appid=InsertKey"
Alofi,NU,-19.06,-169.92,80.6,65,56,10.29,"http://api.openweathermap.org/data/2.5/weather?q=alofi,nu&units=imperial&appid=InsertKey"
Khatanga,RU,71.97,102.5,-41.99,0,20,3.6,"http://api.openweathermap.org/data/2.5/weather?q=khatanga,ru&units=imperial&appid=InsertKey"
Morant Bay,JM,17.88,-76.41,77.0,88,75,6.93,"http://api.openweathermap.org/data/2.5/weather?q=morant bay,jm&units=imperial&appid=InsertKey"
Makakilo City,US,21.35,-158.09,76.12,50,1,11.41,"http://api.openweathermap.org/data/2.5/weather?q=makakilo city,us&units=imperial&appid=InsertKey"
Mehamn,NO,71.04,27.85,28.4,92,20,2.24,"http://api.openweathermap.org/data/2.5/weather?q=mehamn,no&units=imperial&appid=InsertKey"
Paamiut,GL,61.99,-49.67,28.44,93,24,13.44,"http://api.openweathermap.org/data/2.5/weather?q=paamiut,gl&units=imperial&appid=InsertKey"
Aksu,CN,41.12,80.26,20.34,81,88,0.92,"http://api.openweathermap.org/data/2.5/weather?q=aksu,cn&units=imperial&appid=InsertKey"
Wanaka,NZ,-44.7,169.15,49.54,88,64,2.59,"http://api.openweathermap.org/data/2.5/weather?q=wanaka,nz&units=imperial&appid=InsertKey"
Kazerun,IR,29.62,51.65,39.87,80,0,2.59,"http://api.openweathermap.org/data/2.5/weather?q=kazerun,ir&units=imperial&appid=InsertKey"
Praia da Vitoria,PT,38.73,-27.07,62.6,88,40,13.44,"http://api.openweathermap.org/data/2.5/weather?q=praia da vitoria,pt&units=imperial&appid=InsertKey"
Bredasdorp,ZA,-34.53,20.04,62.6,88,76,5.82,"http://api.openweathermap.org/data/2.5/weather?q=bredasdorp,za&units=imperial&appid=InsertKey"
Dhidhdhoo,MV,6.88,73.1,81.54,100,0,2.26,"http://api.openweathermap.org/data/2.5/weather?q=dhidhdhoo,mv&units=imperial&appid=InsertKey"
Hithadhoo,MV,-0.6,73.08,81.76,100,44,7.74,"http://api.openweathermap.org/data/2.5/weather?q=hithadhoo,mv&units=imperial&appid=InsertKey"
Bonthe,SL,7.53,-12.51,81.94,75,0,4.61,"http://api.openweathermap.org/data/2.5/weather?q=bonthe,sl&units=imperial&appid=InsertKey"
Saint-Philippe,RE,-21.36,55.77,78.8,74,75,4.7,"http://api.openweathermap.org/data/2.5/weather?q=saint-philippe,re&units=imperial&appid=InsertKey"
Kyaukse,MM,21.6,96.13,58.99,86,0,2.26,"http://api.openweathermap.org/data/2.5/weather?q=kyaukse,mm&units=imperial&appid=InsertKey"
Gouyave,GD,12.16,-61.73,84.2,74,20,11.41,"http://api.openweathermap.org/data/2.5/weather?q=gouyave,gd&units=imperial&appid=InsertKey"
Chumikan,RU,54.72,135.31,-10.4,72,0,6.73,"http://api.openweathermap.org/data/2.5/weather?q=chumikan,ru&units=imperial&appid=InsertKey"
Sao Felix do Xingu,BR,-6.64,-51.99,80.68,84,68,2.15,"http://api.openweathermap.org/data/2.5/weather?q=sao felix do xingu,br&units=imperial&appid=InsertKey"
Torbay,CA,47.67,-52.73,41.0,100,90,20.8,"http://api.openweathermap.org/data/2.5/weather?q=torbay,ca&units=imperial&appid=InsertKey"
Malacky,SK,48.44,17.02,34.3,86,20,10.29,"http://api.openweathermap.org/data/2.5/weather?q=malacky,sk&units=imperial&appid=InsertKey"
Zhucheng,CN,35.99,119.4,22.0,78,92,5.39,"http://api.openweathermap.org/data/2.5/weather?q=zhucheng,cn&units=imperial&appid=InsertKey"
Buraydah,SA,26.33,43.98,55.4,43,40,2.24,"http://api.openweathermap.org/data/2.5/weather?q=buraydah,sa&units=imperial&appid=InsertKey"
Chuy,UY,-33.7,-53.46,78.97,61,48,13.33,"http://api.openweathermap.org/data/2.5/weather?q=chuy,uy&units=imperial&appid=InsertKey"
Xining,CN,36.62,101.77,24.84,44,0,6.96,"http://api.openweathermap.org/data/2.5/weather?q=xining,cn&units=imperial&appid=InsertKey"
Kaohsiung,TW,22.62,120.31,63.7,87,75,2.24,"http://api.openweathermap.org/data/2.5/weather?q=kaohsiung,tw&units=imperial&appid=InsertKey"
Ilulissat,GL,69.22,-51.1,19.4,85,92,11.41,"http://api.openweathermap.org/data/2.5/weather?q=ilulissat,gl&units=imperial&appid=InsertKey"
Vila Velha,BR,-20.33,-40.29,77.0,69,75,9.17,"http://api.openweathermap.org/data/2.5/weather?q=vila velha,br&units=imperial&appid=InsertKey"
Banes,CU,20.96,-75.72,73.4,64,75,9.17,"http://api.openweathermap.org/data/2.5/weather?q=banes,cu&units=imperial&appid=InsertKey"
Huicungo,PE,-7.28,-76.8,87.8,66,20,1.59,"http://api.openweathermap.org/data/2.5/weather?q=huicungo,pe&units=imperial&appid=InsertKey"
Bengkulu,ID,-3.8,102.27,75.51,100,92,14.23,"http://api.openweathermap.org/data/2.5/weather?q=bengkulu,id&units=imperial&appid=InsertKey"
Mingyue,CN,43.11,128.92,-10.31,51,0,4.16,"http://api.openweathermap.org/data/2.5/weather?q=mingyue,cn&units=imperial&appid=InsertKey"
Kaeo,NZ,-35.1,173.78,62.86,97,80,12.21,"http://api.openweathermap.org/data/2.5/weather?q=kaeo,nz&units=imperial&appid=InsertKey"
Hastings,NZ,-39.64,176.85,61.15,100,88,20.27,"http://api.openweathermap.org/data/2.5/weather?q=hastings,nz&units=imperial&appid=InsertKey"
Kukshi,IN,22.2,74.75,61.56,87,0,3.15,"http://api.openweathermap.org/data/2.5/weather?q=kukshi,in&units=imperial&appid=InsertKey"
Roma,AU,-26.58,148.78,70.02,52,0,10.09,"http://api.openweathermap.org/data/2.5/weather?q=roma,au&units=imperial&appid=InsertKey"
Anadyr,RU,64.75,177.48,-0.41,77,90,13.42,"http://api.openweathermap.org/data/2.5/weather?q=anadyr,ru&units=imperial&appid=InsertKey"
Nome,US,64.5,-165.41,32.0,97,90,11.41,"http://api.openweathermap.org/data/2.5/weather?q=nome,us&units=imperial&appid=InsertKey"
Ipua,BR,-20.44,-48.01,80.41,67,36,5.17,"http://api.openweathermap.org/data/2.5/weather?q=ipua,br&units=imperial&appid=InsertKey"
Picos,BR,-7.08,-41.47,78.39,92,32,2.93,"http://api.openweathermap.org/data/2.5/weather?q=picos,br&units=imperial&appid=InsertKey"
Mangrul Pir,IN,20.32,77.35,64.89,74,36,1.25,"http://api.openweathermap.org/data/2.5/weather?q=mangrul pir,in&units=imperial&appid=InsertKey"
Frasinet,RO,44.32,26.8,41.9,93,64,2.24,"http://api.openweathermap.org/data/2.5/weather?q=frasinet,ro&units=imperial&appid=InsertKey"
Cap Malheureux,MU,-19.98,57.61,78.8,88,75,6.93,"http://api.openweathermap.org/data/2.5/weather?q=cap malheureux,mu&units=imperial&appid=InsertKey"
Sechura,PE,-5.56,-80.82,76.0,72,0,13.0,"http://api.openweathermap.org/data/2.5/weather?q=sechura,pe&units=imperial&appid=InsertKey"
Prince Rupert,CA,54.32,-130.32,46.4,87,90,3.36,"http://api.openweathermap.org/data/2.5/weather?q=prince rupert,ca&units=imperial&appid=InsertKey"
Grindavik,IS,63.84,-22.43,28.78,100,0,4.7,"http://api.openweathermap.org/data/2.5/weather?q=grindavik,is&units=imperial&appid=InsertKey"
Omboue,GA,-1.57,9.26,80.41,100,64,7.74,"http://api.openweathermap.org/data/2.5/weather?q=omboue,ga&units=imperial&appid=InsertKey"
Viedma,AR,-40.81,-63.0,82.17,36,44,11.77,"http://api.openweathermap.org/data/2.5/weather?q=viedma,ar&units=imperial&appid=InsertKey"
Carnarvon,AU,-24.87,113.63,74.02,95,0,22.28,"http://api.openweathermap.org/data/2.5/weather?q=carnarvon,au&units=imperial&appid=InsertKey"
Narsaq,GL,60.92,-46.05,19.4,44,0,3.36,"http://api.openweathermap.org/data/2.5/weather?q=narsaq,gl&units=imperial&appid=InsertKey"
San Juan,AR,-31.54,-68.54,81.4,42,0,5.61,"http://api.openweathermap.org/data/2.5/weather?q=san juan,ar&units=imperial&appid=InsertKey"
Fare,PF,-16.7,-151.02,82.26,100,20,4.05,"http://api.openweathermap.org/data/2.5/weather?q=fare,pf&units=imperial&appid=InsertKey"
Puerto Penasco,MX,31.32,-113.53,68.71,82,0,2.71,"http://api.openweathermap.org/data/2.5/weather?q=puerto penasco,mx&units=imperial&appid=InsertKey"
Wellington,NZ,-41.29,174.78,64.4,63,12,14.99,"http://api.openweathermap.org/data/2.5/weather?q=wellington,nz&units=imperial&appid=InsertKey"
Kidal,ML,18.44,1.41,69.61,47,88,11.21,"http://api.openweathermap.org/data/2.5/weather?q=kidal,ml&units=imperial&appid=InsertKey"
Toccoa,US,34.58,-83.33,45.93,26,1,13.87,"http://api.openweathermap.org/data/2.5/weather?q=toccoa,us&units=imperial&appid=InsertKey"
Tula,MX,23.0,-99.72,69.39,30,0,3.15,"http://api.openweathermap.org/data/2.5/weather?q=tula,mx&units=imperial&appid=InsertKey"
Hwange,ZW,-18.37,26.5,67.99,92,56,3.94,"http://api.openweathermap.org/data/2.5/weather?q=hwange,zw&units=imperial&appid=InsertKey"
Tuy Hoa,VN,13.08,109.3,72.99,100,92,5.73,"http://api.openweathermap.org/data/2.5/weather?q=tuy hoa,vn&units=imperial&appid=InsertKey"
Posse,BR,-14.09,-46.37,76.81,68,64,9.19,"http://api.openweathermap.org/data/2.5/weather?q=posse,br&units=imperial&appid=InsertKey"
Cidreira,BR,-30.18,-50.21,79.02,63,0,12.88,"http://api.openweathermap.org/data/2.5/weather?q=cidreira,br&units=imperial&appid=InsertKey"
Ponta do Sol,CV,17.2,-25.09,74.16,100,12,22.06,"http://api.openweathermap.org/data/2.5/weather?q=ponta do sol,cv&units=imperial&appid=InsertKey"
Ilinskiy,RU,55.62,38.12,33.37,95,0,4.47,"http://api.openweathermap.org/data/2.5/weather?q=ilinskiy,ru&units=imperial&appid=InsertKey"
Deputatskiy,RU,69.3,139.9,-31.01,50,32,2.82,"http://api.openweathermap.org/data/2.5/weather?q=deputatskiy,ru&units=imperial&appid=InsertKey"
Mbaiki,CF,3.87,17.99,75.96,80,20,1.7,"http://api.openweathermap.org/data/2.5/weather?q=mbaiki,cf&units=imperial&appid=InsertKey"
Hit,IQ,33.64,42.83,40.18,74,0,2.93,"http://api.openweathermap.org/data/2.5/weather?q=hit,iq&units=imperial&appid=InsertKey"
Matara,LK,5.95,80.54,74.92,100,32,5.39,"http://api.openweathermap.org/data/2.5/weather?q=matara,lk&units=imperial&appid=InsertKey"
Iqaluit,CA,63.75,-68.51,10.4,60,75,6.93,"http://api.openweathermap.org/data/2.5/weather?q=iqaluit,ca&units=imperial&appid=InsertKey"
Cassilandia,BR,-19.11,-51.73,78.16,74,56,13.56,"http://api.openweathermap.org/data/2.5/weather?q=cassilandia,br&units=imperial&appid=InsertKey"
Zenzeli,RU,45.92,47.05,38.65,94,88,15.79,"http://api.openweathermap.org/data/2.5/weather?q=zenzeli,ru&units=imperial&appid=InsertKey"
Tutoia,BR,-2.76,-42.27,84.2,70,75,17.22,"http://api.openweathermap.org/data/2.5/weather?q=tutoia,br&units=imperial&appid=InsertKey"
Jumla,NP,29.27,82.18,15.84,77,88,1.14,"http://api.openweathermap.org/data/2.5/weather?q=jumla,np&units=imperial&appid=InsertKey"
Dehloran,IR,32.69,47.27,40.99,69,20,6.62,"http://api.openweathermap.org/data/2.5/weather?q=dehloran,ir&units=imperial&appid=InsertKey"
Chokurdakh,RU,70.63,147.92,-14.72,68,68,3.04,"http://api.openweathermap.org/data/2.5/weather?q=chokurdakh,ru&units=imperial&appid=InsertKey"
Pitimbu,BR,-7.47,-34.81,78.8,74,20,6.93,"http://api.openweathermap.org/data/2.5/weather?q=pitimbu,br&units=imperial&appid=InsertKey"
Green River,US,41.53,-109.47,42.8,13,90,6.93,"http://api.openweathermap.org/data/2.5/weather?q=green river,us&units=imperial&appid=InsertKey"
Port Alfred,ZA,-33.59,26.89,67.27,81,0,28.77,"http://api.openweathermap.org/data/2.5/weather?q=port alfred,za&units=imperial&appid=InsertKey"
Acajutla,SV,13.59,-89.83,82.56,48,0,13.87,"http://api.openweathermap.org/data/2.5/weather?q=acajutla,sv&units=imperial&appid=InsertKey"
Nangomba,TZ,-10.9,38.5,81.76,54,0,11.65,"http://api.openweathermap.org/data/2.5/weather?q=nangomba,tz&units=imperial&appid=InsertKey"
Caravelas,BR,-17.71,-39.25,74.97,100,100,22.17,"http://api.openweathermap.org/data/2.5/weather?q=caravelas,br&units=imperial&appid=InsertKey"
Hofn,IS,64.25,-15.21,37.39,100,44,33.13,"http://api.openweathermap.org/data/2.5/weather?q=hofn,is&units=imperial&appid=InsertKey"
Mariakani,KE,-3.86,39.47,75.91,85,0,7.63,"http://api.openweathermap.org/data/2.5/weather?q=mariakani,ke&units=imperial&appid=InsertKey"
Saint-Pierre,PM,46.77,-56.17,42.8,100,90,23.04,"http://api.openweathermap.org/data/2.5/weather?q=saint-pierre,pm&units=imperial&appid=InsertKey"
Orikum,AL,40.33,19.47,58.32,100,76,14.67,"http://api.openweathermap.org/data/2.5/weather?q=orikum,al&units=imperial&appid=InsertKey"
Port Keats,AU,-14.25,129.55,78.88,94,0,11.99,"http://api.openweathermap.org/data/2.5/weather?q=port keats,au&units=imperial&appid=InsertKey"
Filingue,NE,14.35,3.32,76.59,48,64,8.75,"http://api.openweathermap.org/data/2.5/weather?q=filingue,ne&units=imperial&appid=InsertKey"
Aksarka,RU,66.56,67.8,3.37,84,56,16.02,"http://api.openweathermap.org/data/2.5/weather?q=aksarka,ru&units=imperial&appid=InsertKey"
Mahebourg,MU,-20.41,57.7,78.8,88,75,6.93,"http://api.openweathermap.org/data/2.5/weather?q=mahebourg,mu&units=imperial&appid=InsertKey"
Yavaros,MX,26.7,-109.52,77.44,46,48,6.73,"http://api.openweathermap.org/data/2.5/weather?q=yavaros,mx&units=imperial&appid=InsertKey"
Butaritari,KI,3.07,172.79,83.02,100,56,14.79,"http://api.openweathermap.org/data/2.5/weather?q=butaritari,ki&units=imperial&appid=InsertKey"
Kruisfontein,ZA,-34.0,24.73,61.15,93,92,17.13,"http://api.openweathermap.org/data/2.5/weather?q=kruisfontein,za&units=imperial&appid=InsertKey"
Namatanai,PG,-3.67,152.43,81.09,100,76,16.02,"http://api.openweathermap.org/data/2.5/weather?q=namatanai,pg&units=imperial&appid=InsertKey"
Baykit,RU,61.67,96.37,-19.0,79,12,4.16,"http://api.openweathermap.org/data/2.5/weather?q=baykit,ru&units=imperial&appid=InsertKey"
Lompoc,US,34.64,-120.46,79.12,8,1,3.38,"http://api.openweathermap.org/data/2.5/weather?q=lompoc,us&units=imperial&appid=InsertKey"
Joensuu,FI,62.58,29.75,30.2,92,90,9.17,"http://api.openweathermap.org/data/2.5/weather?q=joensuu,fi&units=imperial&appid=InsertKey"
Kamyaran,IR,34.8,46.94,32.86,51,0,2.04,"http://api.openweathermap.org/data/2.5/weather?q=kamyaran,ir&units=imperial&appid=InsertKey"
Broken Hill,AU,-31.95,141.43,88.92,23,92,11.77,"http://api.openweathermap.org/data/2.5/weather?q=broken hill,au&units=imperial&appid=InsertKey"
Upernavik,GL,72.79,-56.15,23.71,100,88,7.07,"http://api.openweathermap.org/data/2.5/weather?q=upernavik,gl&units=imperial&appid=InsertKey"
Malanje,AO,-9.54,16.34,70.06,86,68,2.93,"http://api.openweathermap.org/data/2.5/weather?q=malanje,ao&units=imperial&appid=InsertKey"
Santa Maria,CV,16.6,-22.9,73.4,60,75,19.46,"http://api.openweathermap.org/data/2.5/weather?q=santa maria,cv&units=imperial&appid=InsertKey"
Mitchell,US,43.71,-98.03,39.2,64,90,19.46,"http://api.openweathermap.org/data/2.5/weather?q=mitchell,us&units=imperial&appid=InsertKey"
Ylivieska,FI,64.08,24.67,30.73,79,80,10.54,"http://api.openweathermap.org/data/2.5/weather?q=ylivieska,fi&units=imperial&appid=InsertKey"
Aquiraz,BR,-3.9,-38.39,82.4,69,20,11.41,"http://api.openweathermap.org/data/2.5/weather?q=aquiraz,br&units=imperial&appid=InsertKey"
Faanui,PF,-16.48,-151.75,82.39,100,36,1.14,"http://api.openweathermap.org/data/2.5/weather?q=faanui,pf&units=imperial&appid=InsertKey"
Krasnogorskiy,RU,54.6,61.23,-7.07,76,12,9.75,"http://api.openweathermap.org/data/2.5/weather?q=krasnogorskiy,ru&units=imperial&appid=InsertKey"
Port Macquarie,AU,-31.43,152.92,73.4,69,0,6.93,"http://api.openweathermap.org/data/2.5/weather?q=port macquarie,au&units=imperial&appid=InsertKey"
Poronaysk,RU,49.22,143.12,24.21,100,24,19.48,"http://api.openweathermap.org/data/2.5/weather?q=poronaysk,ru&units=imperial&appid=InsertKey"
Shaygino,RU,57.77,46.86,35.5,99,92,9.53,"http://api.openweathermap.org/data/2.5/weather?q=shaygino,ru&units=imperial&appid=InsertKey"
Yumen,CN,40.28,97.2,11.97,73,20,5.61,"http://api.openweathermap.org/data/2.5/weather?q=yumen,cn&units=imperial&appid=InsertKey"
Churapcha,RU,62.0,132.43,-41.99,0,48,2.93,"http://api.openweathermap.org/data/2.5/weather?q=churapcha,ru&units=imperial&appid=InsertKey"
Souillac,MU,-20.52,57.52,78.8,88,75,6.93,"http://api.openweathermap.org/data/2.5/weather?q=souillac,mu&units=imperial&appid=InsertKey"
Muisne,EC,0.6,-80.03,83.02,68,8,9.53,"http://api.openweathermap.org/data/2.5/weather?q=muisne,ec&units=imperial&appid=InsertKey"
Bellavista,PE,-7.06,-76.59,89.89,66,20,1.59,"http://api.openweathermap.org/data/2.5/weather?q=bellavista,pe&units=imperial&appid=InsertKey"
Nan,TH,18.79,100.73,64.62,96,32,2.37,"http://api.openweathermap.org/data/2.5/weather?q=nan,th&units=imperial&appid=InsertKey"
Lazaro Cardenas,MX,17.96,-102.2,82.75,75,0,7.07,"http://api.openweathermap.org/data/2.5/weather?q=lazaro cardenas,mx&units=imperial&appid=InsertKey"
Hengyang,CN,26.89,112.61,41.89,100,92,8.97,"http://api.openweathermap.org/data/2.5/weather?q=hengyang,cn&units=imperial&appid=InsertKey"
Ayan,RU,56.45,138.17,-12.56,100,0,8.86,"http://api.openweathermap.org/data/2.5/weather?q=ayan,ru&units=imperial&appid=InsertKey"
Sisimiut,GL,66.94,-53.67,14.98,100,80,2.48,"http://api.openweathermap.org/data/2.5/weather?q=sisimiut,gl&units=imperial&appid=InsertKey"
Hudiksvall,SE,61.73,17.1,34.51,100,92,16.35,"http://api.openweathermap.org/data/2.5/weather?q=hudiksvall,se&units=imperial&appid=InsertKey"
Bathsheba,BB,13.22,-59.52,82.4,78,20,16.11,"http://api.openweathermap.org/data/2.5/weather?q=bathsheba,bb&units=imperial&appid=InsertKey"
Bari,IN,26.65,77.6,51.66,87,0,3.94,"http://api.openweathermap.org/data/2.5/weather?q=bari,in&units=imperial&appid=InsertKey"
Petropavlovsk-Kamchatskiy,RU,53.05,158.65,21.2,57,88,15.66,"http://api.openweathermap.org/data/2.5/weather?q=petropavlovsk-kamchatskiy,ru&units=imperial&appid=InsertKey"
Santa Isabel do Rio Negro,BR,-0.41,-65.02,84.24,79,20,3.38,"http://api.openweathermap.org/data/2.5/weather?q=santa isabel do rio negro,br&units=imperial&appid=InsertKey"
Obihiro,JP,42.92,143.2,21.1,73,12,8.63,"http://api.openweathermap.org/data/2.5/weather?q=obihiro,jp&units=imperial&appid=InsertKey"
Montlucon,FR,46.33,2.6,49.14,94,92,24.85,"http://api.openweathermap.org/data/2.5/weather?q=montlucon,fr&units=imperial&appid=InsertKey"
Adelaide,AU,-34.93,138.6,66.2,88,75,11.41,"http://api.openweathermap.org/data/2.5/weather?q=adelaide,au&units=imperial&appid=InsertKey"
Namibe,AO,-15.2,12.15,71.41,100,0,5.5,"http://api.openweathermap.org/data/2.5/weather?q=namibe,ao&units=imperial&appid=InsertKey"
Pisco,PE,-13.7,-76.22,71.6,68,0,20.8,"http://api.openweathermap.org/data/2.5/weather?q=pisco,pe&units=imperial&appid=InsertKey"
Etchoropo,MX,26.77,-109.67,77.44,46,48,6.73,"http://api.openweathermap.org/data/2.5/weather?q=etchoropo,mx&units=imperial&appid=InsertKey"
Atar,MR,20.52,-13.05,55.66,44,0,7.74,"http://api.openweathermap.org/data/2.5/weather?q=atar,mr&units=imperial&appid=InsertKey"
Roald,NO,62.58,6.13,29.41,80,0,11.41,"http://api.openweathermap.org/data/2.5/weather?q=roald,no&units=imperial&appid=InsertKey"
Vestmannaeyjar,IS,63.44,-20.27,32.8,100,32,18.03,"http://api.openweathermap.org/data/2.5/weather?q=vestmannaeyjar,is&units=imperial&appid=InsertKey"
Gaoual,GN,11.75,-13.2,68.67,67,0,4.05,"http://api.openweathermap.org/data/2.5/weather?q=gaoual,gn&units=imperial&appid=InsertKey"
Mariental,NA,-24.63,17.97,82.4,4,0,9.17,"http://api.openweathermap.org/data/2.5/weather?q=mariental,na&units=imperial&appid=InsertKey"
Shimoda,JP,34.67,138.95,45.72,100,8,12.55,"http://api.openweathermap.org/data/2.5/weather?q=shimoda,jp&units=imperial&appid=InsertKey"
Hannibal,US,39.71,-91.36,46.15,57,75,13.87,"http://api.openweathermap.org/data/2.5/weather?q=hannibal,us&units=imperial&appid=InsertKey"
Sembakung,ID,3.82,117.25,73.39,100,8,2.15,"http://api.openweathermap.org/data/2.5/weather?q=sembakung,id&units=imperial&appid=InsertKey"
Belaya Gora,RU,68.53,146.42,-21.11,63,64,6.29,"http://api.openweathermap.org/data/2.5/weather?q=belaya gora,ru&units=imperial&appid=InsertKey"
Muroto,JP,33.28,134.15,35.6,64,75,3.36,"http://api.openweathermap.org/data/2.5/weather?q=muroto,jp&units=imperial&appid=InsertKey"
Arlit,NE,18.74,7.39,72.04,33,80,11.65,"http://api.openweathermap.org/data/2.5/weather?q=arlit,ne&units=imperial&appid=InsertKey"
Roanoke Rapids,US,36.46,-77.65,36.93,34,1,5.82,"http://api.openweathermap.org/data/2.5/weather?q=roanoke rapids,us&units=imperial&appid=InsertKey"
Miranda de Ebro,ES,42.69,-2.95,46.96,76,75,13.87,"http://api.openweathermap.org/data/2.5/weather?q=miranda de ebro,es&units=imperial&appid=InsertKey"
Panna,IN,24.72,80.2,61.47,99,88,2.04,"http://api.openweathermap.org/data/2.5/weather?q=panna,in&units=imperial&appid=InsertKey"
Chiang Mai,TH,18.79,98.98,68.0,82,20,2.71,"http://api.openweathermap.org/data/2.5/weather?q=chiang mai,th&units=imperial&appid=InsertKey"
Luganville,VU,-15.53,167.17,76.99,100,92,5.5,"http://api.openweathermap.org/data/2.5/weather?q=luganville,vu&units=imperial&appid=InsertKey"
Havre-Saint-Pierre,CA,50.23,-63.6,37.4,100,90,19.46,"http://api.openweathermap.org/data/2.5/weather?q=havre-saint-pierre,ca&units=imperial&appid=InsertKey"
Barrow,US,71.29,-156.79,5.0,77,90,32.21,"http://api.openweathermap.org/data/2.5/weather?q=barrow,us&units=imperial&appid=InsertKey"
Cordoba,AR,-31.41,-64.18,77.0,53,75,18.34,"http://api.openweathermap.org/data/2.5/weather?q=cordoba,ar&units=imperial&appid=InsertKey"
Whitehorse,CA,60.72,-135.05,32.0,86,90,23.04,"http://api.openweathermap.org/data/2.5/weather?q=whitehorse,ca&units=imperial&appid=InsertKey"
Yarmouth,CA,43.83,-66.12,33.8,80,90,19.46,"http://api.openweathermap.org/data/2.5/weather?q=yarmouth,ca&units=imperial&appid=InsertKey"
Nemuro,JP,43.32,145.57,37.75,100,44,27.09,"http://api.openweathermap.org/data/2.5/weather?q=nemuro,jp&units=imperial&appid=InsertKey"
Dubai,AE,25.26,55.3,65.17,42,0,8.05,"http://api.openweathermap.org/data/2.5/weather?q=dubai,ae&units=imperial&appid=InsertKey"
Ugoofaaru,MV,5.67,73.0,81.67,100,8,3.38,"http://api.openweathermap.org/data/2.5/weather?q=ugoofaaru,mv&units=imperial&appid=InsertKey"
Rawah,IQ,34.48,41.91,37.21,87,0,2.59,"http://api.openweathermap.org/data/2.5/weather?q=rawah,iq&units=imperial&appid=InsertKey"
Coquimbo,CL,-29.95,-71.34,66.2,72,0,11.41,"http://api.openweathermap.org/data/2.5/weather?q=coquimbo,cl&units=imperial&appid=InsertKey"
Nowy Dwor Mazowiecki,PL,52.43,20.72,28.4,92,0,10.29,"http://api.openweathermap.org/data/2.5/weather?q=nowy dwor mazowiecki,pl&units=imperial&appid=InsertKey"
College,US,64.86,-147.8,38.55,41,1,13.87,"http://api.openweathermap.org/data/2.5/weather?q=college,us&units=imperial&appid=InsertKey"
Santa Cruz,CR,10.26,-85.59,82.4,61,0,23.04,"http://api.openweathermap.org/data/2.5/weather?q=santa cruz,cr&units=imperial&appid=InsertKey"
Port Elizabeth,ZA,-33.92,25.57,62.6,82,40,24.16,"http://api.openweathermap.org/data/2.5/weather?q=port elizabeth,za&units=imperial&appid=InsertKey"
Narasannapeta,IN,18.42,84.05,67.0,100,8,2.71,"http://api.openweathermap.org/data/2.5/weather?q=narasannapeta,in&units=imperial&appid=InsertKey"
Awjilah,LY,29.11,21.29,48.42,83,24,2.82,"http://api.openweathermap.org/data/2.5/weather?q=awjilah,ly&units=imperial&appid=InsertKey"
Punta Alta,AR,-38.88,-62.07,67.32,90,92,12.1,"http://api.openweathermap.org/data/2.5/weather?q=punta alta,ar&units=imperial&appid=InsertKey"
Tabou,CI,4.42,-7.35,81.81,100,0,7.63,"http://api.openweathermap.org/data/2.5/weather?q=tabou,ci&units=imperial&appid=InsertKey"
Paris,US,33.66,-95.56,69.8,18,1,13.87,"http://api.openweathermap.org/data/2.5/weather?q=paris,us&units=imperial&appid=InsertKey"
Paramonga,PE,-10.67,-77.83,65.47,96,68,9.53,"http://api.openweathermap.org/data/2.5/weather?q=paramonga,pe&units=imperial&appid=InsertKey"
Pankrushikha,RU,53.83,80.34,3.82,83,76,4.94,"http://api.openweathermap.org/data/2.5/weather?q=pankrushikha,ru&units=imperial&appid=InsertKey"
Port-Cartier,CA,50.03,-66.87,28.4,92,90,18.34,"http://api.openweathermap.org/data/2.5/weather?q=port-cartier,ca&units=imperial&appid=InsertKey"
Lagoa,PT,39.05,-27.98,64.89,100,80,14.23,"http://api.openweathermap.org/data/2.5/weather?q=lagoa,pt&units=imperial&appid=InsertKey"
Srostki,RU,52.42,85.7,-8.2,64,24,2.15,"http://api.openweathermap.org/data/2.5/weather?q=srostki,ru&units=imperial&appid=InsertKey"
Sarangani,PH,5.4,125.46,82.84,100,92,29.55,"http://api.openweathermap.org/data/2.5/weather?q=sarangani,ph&units=imperial&appid=InsertKey"
Bilma,NE,18.69,12.92,68.44,56,0,8.52,"http://api.openweathermap.org/data/2.5/weather?q=bilma,ne&units=imperial&appid=InsertKey"
Severnyy-Kospashskiy,RU,59.09,57.8,17.32,83,88,16.8,"http://api.openweathermap.org/data/2.5/weather?q=severnyy-kospashskiy,ru&units=imperial&appid=InsertKey"
Pavlovsk,RU,50.46,40.11,43.47,97,92,10.2,"http://api.openweathermap.org/data/2.5/weather?q=pavlovsk,ru&units=imperial&appid=InsertKey"
Mongo,TD,12.18,18.69,68.35,40,0,7.29,"http://api.openweathermap.org/data/2.5/weather?q=mongo,td&units=imperial&appid=InsertKey"
Kharan,PK,28.58,65.42,29.47,85,0,2.59,"http://api.openweathermap.org/data/2.5/weather?q=kharan,pk&units=imperial&appid=InsertKey"
Bandarbeyla,SO,9.49,50.81,76.32,100,0,18.25,"http://api.openweathermap.org/data/2.5/weather?q=bandarbeyla,so&units=imperial&appid=InsertKey"
Havre de Grace,US,39.55,-76.09,29.62,38,1,5.82,"http://api.openweathermap.org/data/2.5/weather?q=havre de grace,us&units=imperial&appid=InsertKey"
Ancud,CL,-41.87,-73.82,56.29,99,92,10.87,"http://api.openweathermap.org/data/2.5/weather?q=ancud,cl&units=imperial&appid=InsertKey"
Koumac,NC,-20.57,164.28,76.36,98,88,7.74,"http://api.openweathermap.org/data/2.5/weather?q=koumac,nc&units=imperial&appid=InsertKey"
Tabuk,SA,28.38,36.58,55.4,43,0,10.29,"http://api.openweathermap.org/data/2.5/weather?q=tabuk,sa&units=imperial&appid=InsertKey"
Longyearbyen,SJ,78.22,15.64,32.0,100,75,19.46,"http://api.openweathermap.org/data/2.5/weather?q=longyearbyen,sj&units=imperial&appid=InsertKey"
Dudinka,RU,69.41,86.18,-12.47,80,92,19.48,"http://api.openweathermap.org/data/2.5/weather?q=dudinka,ru&units=imperial&appid=InsertKey"
Burns Lake,CA,54.23,-125.75,22.18,99,64,2.48,"http://api.openweathermap.org/data/2.5/weather?q=burns lake,ca&units=imperial&appid=InsertKey"
Shimizu,JP,43.01,142.88,12.24,92,48,4.16,"http://api.openweathermap.org/data/2.5/weather?q=shimizu,jp&units=imperial&appid=InsertKey"
Alausi,EC,-2.2,-78.83,71.6,37,20,13.87,"http://api.openweathermap.org/data/2.5/weather?q=alausi,ec&units=imperial&appid=InsertKey"
Blagoveshchensk,RU,50.27,127.53,1.4,49,0,2.24,"http://api.openweathermap.org/data/2.5/weather?q=blagoveshchensk,ru&units=imperial&appid=InsertKey"
Sterling,US,39.01,-77.43,32.74,40,90,3.36,"http://api.openweathermap.org/data/2.5/weather?q=sterling,us&units=imperial&appid=InsertKey"
Ende,ID,-8.84,121.66,81.58,100,12,8.41,"http://api.openweathermap.org/data/2.5/weather?q=ende,id&units=imperial&appid=InsertKey"
Meulaboh,ID,4.14,96.13,74.97,100,92,2.59,"http://api.openweathermap.org/data/2.5/weather?q=meulaboh,id&units=imperial&appid=InsertKey"
Manuel Roxas,PH,6.45,124.67,71.59,100,92,3.04,"http://api.openweathermap.org/data/2.5/weather?q=manuel roxas,ph&units=imperial&appid=InsertKey"
Harper,LR,4.38,-7.72,81.99,100,0,6.06,"http://api.openweathermap.org/data/2.5/weather?q=harper,lr&units=imperial&appid=InsertKey"
Lichinga,MZ,-13.31,35.24,68.0,94,20,2.24,"http://api.openweathermap.org/data/2.5/weather?q=lichinga,mz&units=imperial&appid=InsertKey"
Puyo,EC,-1.47,-77.98,67.72,96,12,1.14,"http://api.openweathermap.org/data/2.5/weather?q=puyo,ec&units=imperial&appid=InsertKey"
Mindelo,CV,16.89,-24.98,73.84,100,36,18.92,"http://api.openweathermap.org/data/2.5/weather?q=mindelo,cv&units=imperial&appid=InsertKey"
Nichlaul,IN,27.32,83.73,50.22,81,44,1.59,"http://api.openweathermap.org/data/2.5/weather?q=nichlaul,in&units=imperial&appid=InsertKey"
Isangel,VU,-19.55,169.27,80.41,98,88,10.98,"http://api.openweathermap.org/data/2.5/weather?q=isangel,vu&units=imperial&appid=InsertKey"
Katherine,AU,-14.47,132.27,75.2,83,44,2.24,"http://api.openweathermap.org/data/2.5/weather?q=katherine,au&units=imperial&appid=InsertKey"
Bulgan,MN,48.81,103.53,-8.15,56,56,2.82,"http://api.openweathermap.org/data/2.5/weather?q=bulgan,mn&units=imperial&appid=InsertKey"
Palmer,US,42.16,-72.33,22.77,62,20,14.99,"http://api.openweathermap.org/data/2.5/weather?q=palmer,us&units=imperial&appid=InsertKey"
Ribeira Grande,PT,38.52,-28.7,64.4,77,75,10.29,"http://api.openweathermap.org/data/2.5/weather?q=ribeira grande,pt&units=imperial&appid=InsertKey"
Zabid,YE,14.2,43.32,64.21,74,0,4.5,"http://api.openweathermap.org/data/2.5/weather?q=zabid,ye&units=imperial&appid=InsertKey"
Beringovskiy,RU,63.05,179.32,-6.44,100,0,5.95,"http://api.openweathermap.org/data/2.5/weather?q=beringovskiy,ru&units=imperial&appid=InsertKey"
Ostrovnoy,RU,68.05,39.51,25.42,93,24,20.15,"http://api.openweathermap.org/data/2.5/weather?q=ostrovnoy,ru&units=imperial&appid=InsertKey"
Pontianak,ID,-0.03,109.33,75.28,100,36,3.15,"http://api.openweathermap.org/data/2.5/weather?q=pontianak,id&units=imperial&appid=InsertKey"
Brae,GB,60.4,-1.35,38.41,86,68,9.17,"http://api.openweathermap.org/data/2.5/weather?q=brae,gb&units=imperial&appid=InsertKey"
Balkanabat,TM,39.51,54.37,21.87,88,0,5.61,"http://api.openweathermap.org/data/2.5/weather?q=balkanabat,tm&units=imperial&appid=InsertKey"
Consolacion del Sur,CU,22.5,-83.51,75.24,59,0,5.5,"http://api.openweathermap.org/data/2.5/weather?q=consolacion del sur,cu&units=imperial&appid=InsertKey"
Cabcab,PH,13.63,124.05,79.56,100,88,24.07,"http://api.openweathermap.org/data/2.5/weather?q=cabcab,ph&units=imperial&appid=InsertKey"
Along,IN,28.17,94.77,52.69,95,8,1.7,"http://api.openweathermap.org/data/2.5/weather?q=along,in&units=imperial&appid=InsertKey"
Hasaki,JP,35.73,140.83,27.19,50,20,5.82,"http://api.openweathermap.org/data/2.5/weather?q=hasaki,jp&units=imperial&appid=InsertKey"
Eyl,SO,7.98,49.82,73.21,98,0,16.13,"http://api.openweathermap.org/data/2.5/weather?q=eyl,so&units=imperial&appid=InsertKey"
Aswan,EG,24.09,32.91,66.2,42,0,5.82,"http://api.openweathermap.org/data/2.5/weather?q=aswan,eg&units=imperial&appid=InsertKey"
Masakin,TN,35.73,10.58,57.9,72,20,14.99,"http://api.openweathermap.org/data/2.5/weather?q=masakin,tn&units=imperial&appid=InsertKey"
Taksimo,RU,56.34,114.88,-26.15,72,76,1.7,"http://api.openweathermap.org/data/2.5/weather?q=taksimo,ru&units=imperial&appid=InsertKey"
Dicabisagan,PH,17.08,122.42,74.34,100,92,17.69,"http://api.openweathermap.org/data/2.5/weather?q=dicabisagan,ph&units=imperial&appid=InsertKey"
Tasiilaq,GL,65.61,-37.64,26.6,68,40,3.36,"http://api.openweathermap.org/data/2.5/weather?q=tasiilaq,gl&units=imperial&appid=InsertKey"
Rapar,IN,23.57,70.63,53.41,84,0,2.82,"http://api.openweathermap.org/data/2.5/weather?q=rapar,in&units=imperial&appid=InsertKey"
Soligalich,RU,59.08,42.29,31.54,96,88,10.54,"http://api.openweathermap.org/data/2.5/weather?q=soligalich,ru&units=imperial&appid=InsertKey"
Halifax,CA,44.65,-63.57,39.2,86,75,20.8,"http://api.openweathermap.org/data/2.5/weather?q=halifax,ca&units=imperial&appid=InsertKey"
Mamallapuram,IN,12.63,80.17,75.2,88,20,5.84,"http://api.openweathermap.org/data/2.5/weather?q=mamallapuram,in&units=imperial&appid=InsertKey"
Sola,VU,-13.88,167.55,79.51,100,68,1.14,"http://api.openweathermap.org/data/2.5/weather?q=sola,vu&units=imperial&appid=InsertKey"
Guerrero Negro,MX,27.98,-114.06,75.24,35,0,4.72,"http://api.openweathermap.org/data/2.5/weather?q=guerrero negro,mx&units=imperial&appid=InsertKey"
Cherskiy,RU,68.75,161.3,1.03,73,80,8.19,"http://api.openweathermap.org/data/2.5/weather?q=cherskiy,ru&units=imperial&appid=InsertKey"
Uyuni,BO,-20.46,-66.83,66.64,13,24,15.01,"http://api.openweathermap.org/data/2.5/weather?q=uyuni,bo&units=imperial&appid=InsertKey"
Andros Town,BS,24.7,-77.77,75.2,44,20,5.82,"http://api.openweathermap.org/data/2.5/weather?q=andros town,bs&units=imperial&appid=InsertKey"
Bardiyah,LY,31.76,25.09,60.7,100,0,9.98,"http://api.openweathermap.org/data/2.5/weather?q=bardiyah,ly&units=imperial&appid=InsertKey"
Vokhtoga,RU,58.81,41.05,31.63,96,80,9.75,"http://api.openweathermap.org/data/2.5/weather?q=vokhtoga,ru&units=imperial&appid=InsertKey"
Lodja,CD,-3.48,23.43,72.67,96,48,3.38,"http://api.openweathermap.org/data/2.5/weather?q=lodja,cd&units=imperial&appid=InsertKey"
Zhangye,CN,38.93,100.45,3.69,59,0,3.6,"http://api.openweathermap.org/data/2.5/weather?q=zhangye,cn&units=imperial&appid=InsertKey"
Necochea,AR,-38.55,-58.74,67.77,85,88,6.17,"http://api.openweathermap.org/data/2.5/weather?q=necochea,ar&units=imperial&appid=InsertKey"
Palana,RU,59.12,159.97,7.42,100,20,23.51,"http://api.openweathermap.org/data/2.5/weather?q=palana,ru&units=imperial&appid=InsertKey"
Husavik,IS,66.04,-17.34,35.6,74,90,5.82,"http://api.openweathermap.org/data/2.5/weather?q=husavik,is&units=imperial&appid=InsertKey"
Qaanaaq,GL,77.48,-69.36,12.37,89,76,5.39,"http://api.openweathermap.org/data/2.5/weather?q=qaanaaq,gl&units=imperial&appid=InsertKey"
Badarganj,BD,25.67,89.05,57.19,87,0,4.27,"http://api.openweathermap.org/data/2.5/weather?q=badarganj,bd&units=imperial&appid=InsertKey"
Ashford,GB,51.15,0.87,39.6,87,88,16.11,"http://api.openweathermap.org/data/2.5/weather?q=ashford,gb&units=imperial&appid=InsertKey"
Umm Lajj,SA,25.02,37.27,61.02,100,0,3.6,"http://api.openweathermap.org/data/2.5/weather?q=umm lajj,sa&units=imperial&appid=InsertKey"
Nishihara,JP,26.18,127.76,59.52,62,90,9.17,"http://api.openweathermap.org/data/2.5/weather?q=nishihara,jp&units=imperial&appid=InsertKey"
Pangnirtung,CA,66.15,-65.71,8.6,71,90,3.36,"http://api.openweathermap.org/data/2.5/weather?q=pangnirtung,ca&units=imperial&appid=InsertKey"
La Ronge,CA,55.1,-105.28,24.8,92,90,2.24,"http://api.openweathermap.org/data/2.5/weather?q=la ronge,ca&units=imperial&appid=InsertKey"
Alice Springs,AU,-23.7,133.88,73.4,64,75,12.75,"http://api.openweathermap.org/data/2.5/weather?q=alice springs,au&units=imperial&appid=InsertKey"
Dalby,AU,-27.18,151.27,66.19,79,0,7.85,"http://api.openweathermap.org/data/2.5/weather?q=dalby,au&units=imperial&appid=InsertKey"
Bubaque,GW,11.28,-15.83,75.2,53,0,3.36,"http://api.openweathermap.org/data/2.5/weather?q=bubaque,gw&units=imperial&appid=InsertKey"
Snasa,NO,64.25,12.38,24.8,85,40,10.29,"http://api.openweathermap.org/data/2.5/weather?q=snasa,no&units=imperial&appid=InsertKey"
Liwale,TZ,-9.77,37.93,79.15,56,0,7.29,"http://api.openweathermap.org/data/2.5/weather?q=liwale,tz&units=imperial&appid=InsertKey"
Quatre Cocos,MU,-20.21,57.76,78.8,88,75,6.93,"http://api.openweathermap.org/data/2.5/weather?q=quatre cocos,mu&units=imperial&appid=InsertKey"
Taoudenni,ML,22.68,-3.98,57.73,37,0,10.65,"http://api.openweathermap.org/data/2.5/weather?q=taoudenni,ml&units=imperial&appid=InsertKey"
Mehamn,NO,71.04,27.85,28.36,92,90,9.17,"http://api.openweathermap.org/data/2.5/weather?q=mehamn,no&units=imperial&appid=InsertKey"
Sierra Vista,US,31.55,-110.3,66.09,22,1,3.36,"http://api.openweathermap.org/data/2.5/weather?q=sierra vista,us&units=imperial&appid=InsertKey"
Vrangel,RU,42.73,133.08,17.32,100,0,18.03,"http://api.openweathermap.org/data/2.5/weather?q=vrangel,ru&units=imperial&appid=InsertKey"
Aklavik,CA,68.22,-135.01,9.81,92,90,6.93,"http://api.openweathermap.org/data/2.5/weather?q=aklavik,ca&units=imperial&appid=InsertKey"
Butembo,CD,0.15,29.28,59.76,89,0,1.81,"http://api.openweathermap.org/data/2.5/weather?q=butembo,cd&units=imperial&appid=InsertKey"
Richards Bay,ZA,-28.78,32.04,71.86,94,100,14.34,"http://api.openweathermap.org/data/2.5/weather?q=richards bay,za&units=imperial&appid=InsertKey"
Skjervoy,NO,70.03,20.97,35.6,93,75,16.11,"http://api.openweathermap.org/data/2.5/weather?q=skjervoy,no&units=imperial&appid=InsertKey"
Tuatapere,NZ,-46.13,167.68,53.01,100,56,5.17,"http://api.openweathermap.org/data/2.5/weather?q=tuatapere,nz&units=imperial&appid=InsertKey"
Magistralnyy,RU,56.17,107.45,-15.67,66,64,2.59,"http://api.openweathermap.org/data/2.5/weather?q=magistralnyy,ru&units=imperial&appid=InsertKey"
Denpasar,ID,-8.65,115.22,78.8,94,40,3.36,"http://api.openweathermap.org/data/2.5/weather?q=denpasar,id&units=imperial&appid=InsertKey"
Phalodi,IN,27.13,72.37,50.04,62,0,5.61,"http://api.openweathermap.org/data/2.5/weather?q=phalodi,in&units=imperial&appid=InsertKey"
Hualmay,PE,-11.1,-77.61,71.37,69,12,5.17,"http://api.openweathermap.org/data/2.5/weather?q=hualmay,pe&units=imperial&appid=InsertKey"
Angoram,PG,-4.06,144.07,74.92,100,92,2.15,"http://api.openweathermap.org/data/2.5/weather?q=angoram,pg&units=imperial&appid=InsertKey"
Durazno,UY,-33.41,-56.5,91.4,31,0,4.7,"http://api.openweathermap.org/data/2.5/weather?q=durazno,uy&units=imperial&appid=InsertKey"
Orsha,BY,54.52,30.41,14.26,67,0,5.06,"http://api.openweathermap.org/data/2.5/weather?q=orsha,by&units=imperial&appid=InsertKey"
Tres Lagoas,BR,-20.75,-51.68,79.33,81,24,7.85,"http://api.openweathermap.org/data/2.5/weather?q=tres lagoas,br&units=imperial&appid=InsertKey"
Camargo,MX,26.25,-98.83,66.2,37,1,4.7,"http://api.openweathermap.org/data/2.5/weather?q=camargo,mx&units=imperial&appid=InsertKey"
Svetlaya,RU,46.54,138.33,26.05,100,80,8.97,"http://api.openweathermap.org/data/2.5/weather?q=svetlaya,ru&units=imperial&appid=InsertKey"
Sao Domingos,BR,-13.4,-46.32,80.41,56,76,8.52,"http://api.openweathermap.org/data/2.5/weather?q=sao domingos,br&units=imperial&appid=InsertKey"
Waxahachie,US,32.39,-96.85,73.4,18,1,9.17,"http://api.openweathermap.org/data/2.5/weather?q=waxahachie,us&units=imperial&appid=InsertKey"
Altay,CN,47.87,88.12,-18.5,44,0,2.37,"http://api.openweathermap.org/data/2.5/weather?q=altay,cn&units=imperial&appid=InsertKey"
Saint-Pierre,RE,-21.34,55.48,78.8,74,75,4.7,"http://api.openweathermap.org/data/2.5/weather?q=saint-pierre,re&units=imperial&appid=InsertKey"
Dryden,CA,49.78,-92.75,10.4,85,1,5.82,"http://api.openweathermap.org/data/2.5/weather?q=dryden,ca&units=imperial&appid=InsertKey"
Pangody,RU,65.85,74.49,-1.9,72,48,15.01,"http://api.openweathermap.org/data/2.5/weather?q=pangody,ru&units=imperial&appid=InsertKey"
Nanortalik,GL,60.14,-45.24,27.76,100,0,30.78,"http://api.openweathermap.org/data/2.5/weather?q=nanortalik,gl&units=imperial&appid=InsertKey"
Golden,CA,51.3,-116.97,24.8,79,75,4.7,"http://api.openweathermap.org/data/2.5/weather?q=golden,ca&units=imperial&appid=InsertKey"
Rocha,UY,-34.48,-54.33,89.32,26,20,9.42,"http://api.openweathermap.org/data/2.5/weather?q=rocha,uy&units=imperial&appid=InsertKey"
Joshimath,IN,30.57,79.57,4.72,86,68,1.36,"http://api.openweathermap.org/data/2.5/weather?q=joshimath,in&units=imperial&appid=InsertKey"
Bogalusa,US,30.79,-89.85,56.66,50,1,6.93,"http://api.openweathermap.org/data/2.5/weather?q=bogalusa,us&units=imperial&appid=InsertKey"
Bonavista,CA,48.65,-53.11,41.89,89,92,29.55,"http://api.openweathermap.org/data/2.5/weather?q=bonavista,ca&units=imperial&appid=InsertKey"
Buta,CD,2.79,24.73,77.49,75,0,2.82,"http://api.openweathermap.org/data/2.5/weather?q=buta,cd&units=imperial&appid=InsertKey"
Tricase,IT,39.93,18.36,56.08,100,20,3.36,"http://api.openweathermap.org/data/2.5/weather?q=tricase,it&units=imperial&appid=InsertKey"
Asino,RU,57.0,86.15,8.05,83,92,9.64,"http://api.openweathermap.org/data/2.5/weather?q=asino,ru&units=imperial&appid=InsertKey"
Ballina,IE,54.12,-9.17,39.42,100,92,22.5,"http://api.openweathermap.org/data/2.5/weather?q=ballina,ie&units=imperial&appid=InsertKey"
Dwarka,IN,22.24,68.97,68.67,100,0,8.75,"http://api.openweathermap.org/data/2.5/weather?q=dwarka,in&units=imperial&appid=InsertKey"
Jilikul,TJ,37.49,68.53,23.08,86,12,2.59,"http://api.openweathermap.org/data/2.5/weather?q=jilikul,tj&units=imperial&appid=InsertKey"
Wuwei,CN,37.93,102.64,-0.86,53,0,2.59,"http://api.openweathermap.org/data/2.5/weather?q=wuwei,cn&units=imperial&appid=InsertKey"
Chapadinha,BR,-3.74,-43.36,74.47,100,92,6.85,"http://api.openweathermap.org/data/2.5/weather?q=chapadinha,br&units=imperial&appid=InsertKey"
Mersing,MY,2.43,103.84,73.75,100,44,4.16,"http://api.openweathermap.org/data/2.5/weather?q=mersing,my&units=imperial&appid=InsertKey"
Nizhniy Tsasuchey,RU,50.52,115.13,-26.74,39,36,2.93,"http://api.openweathermap.org/data/2.5/weather?q=nizhniy tsasuchey,ru&units=imperial&appid=InsertKey"
Shakawe,BW,-18.37,21.85,72.09,81,8,5.95,"http://api.openweathermap.org/data/2.5/weather?q=shakawe,bw&units=imperial&appid=InsertKey"
Talnakh,RU,69.49,88.4,-17.02,74,88,7.07,"http://api.openweathermap.org/data/2.5/weather?q=talnakh,ru&units=imperial&appid=InsertKey"
Barkly West,ZA,-28.54,24.52,69.8,19,0,8.05,"http://api.openweathermap.org/data/2.5/weather?q=barkly west,za&units=imperial&appid=InsertKey"
Ust-Nera,RU,64.57,143.2,-26.02,71,48,1.81,"http://api.openweathermap.org/data/2.5/weather?q=ust-nera,ru&units=imperial&appid=InsertKey"
Brownsville,US,25.9,-97.5,66.9,40,1,4.7,"http://api.openweathermap.org/data/2.5/weather?q=brownsville,us&units=imperial&appid=InsertKey"
Kahului,US,20.89,-156.47,73.31,60,75,16.11,"http://api.openweathermap.org/data/2.5/weather?q=kahului,us&units=imperial&appid=InsertKey"
Rochegda,RU,62.8,43.25,28.39,85,64,14.9,"http://api.openweathermap.org/data/2.5/weather?q=rochegda,ru&units=imperial&appid=InsertKey"
Conceicao do Mato Dentro,BR,-19.04,-43.42,69.61,78,92,6.4,"http://api.openweathermap.org/data/2.5/weather?q=conceicao do mato dentro,br&units=imperial&appid=InsertKey"
Sena Madureira,BR,-9.07,-68.66,84.42,79,12,1.14,"http://api.openweathermap.org/data/2.5/weather?q=sena madureira,br&units=imperial&appid=InsertKey"
Vestmanna,FO,62.16,-7.17,35.6,100,24,1.12,"http://api.openweathermap.org/data/2.5/weather?q=vestmanna,fo&units=imperial&appid=InsertKey"
Moree,AU,-29.47,149.85,72.99,55,0,10.76,"http://api.openweathermap.org/data/2.5/weather?q=moree,au&units=imperial&appid=InsertKey"
Kirakira,SB,-10.45,161.92,82.89,100,76,16.13,"http://api.openweathermap.org/data/2.5/weather?q=kirakira,sb&units=imperial&appid=InsertKey"
Abnub,EG,27.27,31.15,57.2,71,0,16.11,"http://api.openweathermap.org/data/2.5/weather?q=abnub,eg&units=imperial&appid=InsertKey"
Ertil,RU,51.84,40.81,39.42,98,88,7.96,"http://api.openweathermap.org/data/2.5/weather?q=ertil,ru&units=imperial&appid=InsertKey"
Surok,RU,56.45,48.12,33.8,98,90,13.42,"http://api.openweathermap.org/data/2.5/weather?q=surok,ru&units=imperial&appid=InsertKey"
Batangafo,CF,7.3,18.28,74.65,50,24,4.83,"http://api.openweathermap.org/data/2.5/weather?q=batangafo,cf&units=imperial&appid=InsertKey"
Lulea,SE,65.58,22.15,8.6,84,0,2.24,"http://api.openweathermap.org/data/2.5/weather?q=lulea,se&units=imperial&appid=InsertKey"
Lahij,YE,13.06,44.88,53.23,89,0,3.83,"http://api.openweathermap.org/data/2.5/weather?q=lahij,ye&units=imperial&appid=InsertKey"
Sitka,US,57.05,-135.33,47.95,81,90,17.22,"http://api.openweathermap.org/data/2.5/weather?q=sitka,us&units=imperial&appid=InsertKey"
Lubango,AO,-14.92,13.49,64.62,86,0,2.59,"http://api.openweathermap.org/data/2.5/weather?q=lubango,ao&units=imperial&appid=InsertKey"
Cairns,AU,-16.92,145.77,80.6,69,32,8.05,"http://api.openweathermap.org/data/2.5/weather?q=cairns,au&units=imperial&appid=InsertKey"
Crieff,GB,56.37,-3.84,33.21,82,20,12.75,"http://api.openweathermap.org/data/2.5/weather?q=crieff,gb&units=imperial&appid=InsertKey"
Dunedin,NZ,-45.87,170.5,51.84,92,64,5.73,"http://api.openweathermap.org/data/2.5/weather?q=dunedin,nz&units=imperial&appid=InsertKey"
Kommunisticheskiy,RU,61.68,64.48,11.74,83,68,10.98,"http://api.openweathermap.org/data/2.5/weather?q=kommunisticheskiy,ru&units=imperial&appid=InsertKey"
Novyy Buyan,RU,53.69,50.05,24.8,100,90,20.13,"http://api.openweathermap.org/data/2.5/weather?q=novyy buyan,ru&units=imperial&appid=InsertKey"
Berlevag,NO,70.86,29.09,27.75,92,75,11.41,"http://api.openweathermap.org/data/2.5/weather?q=berlevag,no&units=imperial&appid=InsertKey"
Gilgit,PK,35.92,74.31,13.45,89,76,1.36,"http://api.openweathermap.org/data/2.5/weather?q=gilgit,pk&units=imperial&appid=InsertKey"
Yulara,AU,-25.24,130.99,73.4,69,68,8.05,"http://api.openweathermap.org/data/2.5/weather?q=yulara,au&units=imperial&appid=InsertKey"
Bongaree,AU,-27.08,153.16,77.0,65,40,3.36,"http://api.openweathermap.org/data/2.5/weather?q=bongaree,au&units=imperial&appid=InsertKey"
Mananjary,MG,-21.22,48.33,80.37,100,36,10.98,"http://api.openweathermap.org/data/2.5/weather?q=mananjary,mg&units=imperial&appid=InsertKey"
Katsuura,JP,35.13,140.3,39.2,35,20,11.41,"http://api.openweathermap.org/data/2.5/weather?q=katsuura,jp&units=imperial&appid=InsertKey"
Yerbogachen,RU,61.28,108.01,-12.92,79,48,4.5,"http://api.openweathermap.org/data/2.5/weather?q=yerbogachen,ru&units=imperial&appid=InsertKey"
Sorland,NO,67.67,12.69,32.0,100,75,2.24,"http://api.openweathermap.org/data/2.5/weather?q=sorland,no&units=imperial&appid=InsertKey"
Bintulu,MY,3.17,113.03,75.2,94,75,8.05,"http://api.openweathermap.org/data/2.5/weather?q=bintulu,my&units=imperial&appid=InsertKey"
Celestun,MX,20.87,-90.4,74.74,100,0,3.94,"http://api.openweathermap.org/data/2.5/weather?q=celestun,mx&units=imperial&appid=InsertKey"
Paita,PE,-5.09,-81.11,80.6,61,0,9.17,"http://api.openweathermap.org/data/2.5/weather?q=paita,pe&units=imperial&appid=InsertKey"
Belyy Yar,RU,53.6,91.39,12.2,85,0,2.24,"http://api.openweathermap.org/data/2.5/weather?q=belyy yar,ru&units=imperial&appid=InsertKey"
Ankazoabo,MG,-22.28,44.52,72.81,69,56,2.93,"http://api.openweathermap.org/data/2.5/weather?q=ankazoabo,mg&units=imperial&appid=InsertKey"
Elk City,US,35.41,-99.4,64.85,10,1,12.75,"http://api.openweathermap.org/data/2.5/weather?q=elk city,us&units=imperial&appid=InsertKey"
Alenquer,BR,-1.94,-54.74,77.0,94,40,9.17,"http://api.openweathermap.org/data/2.5/weather?q=alenquer,br&units=imperial&appid=InsertKey"
Awbari,LY,26.59,12.78,46.71,77,48,4.5,"http://api.openweathermap.org/data/2.5/weather?q=awbari,ly&units=imperial&appid=InsertKey"
Hamina,FI,60.57,27.2,33.8,97,90,12.75,"http://api.openweathermap.org/data/2.5/weather?q=hamina,fi&units=imperial&appid=InsertKey"
Newcastle,ZA,-27.76,29.93,62.59,35,0,5.17,"http://api.openweathermap.org/data/2.5/weather?q=newcastle,za&units=imperial&appid=InsertKey"
Fairbanks,US,64.84,-147.72,40.44,55,75,14.99,"http://api.openweathermap.org/data/2.5/weather?q=fairbanks,us&units=imperial&appid=InsertKey"
Makiyivka,UA,48.05,37.93,40.77,96,20,7.63,"http://api.openweathermap.org/data/2.5/weather?q=makiyivka,ua&units=imperial&appid=InsertKey"
Quelimane,MZ,-17.88,36.89,80.6,74,40,8.05,"http://api.openweathermap.org/data/2.5/weather?q=quelimane,mz&units=imperial&appid=InsertKey"
Lompoc,US,34.64,-120.46,78.1,11,20,5.82,"http://api.openweathermap.org/data/2.5/weather?q=lompoc,us&units=imperial&appid=InsertKey"
Saraland,US,30.82,-88.07,55.47,37,1,10.29,"http://api.openweathermap.org/data/2.5/weather?q=saraland,us&units=imperial&appid=InsertKey"
Hun,LY,29.13,15.95,41.76,76,8,4.16,"http://api.openweathermap.org/data/2.5/weather?q=hun,ly&units=imperial&appid=InsertKey"
Forest Grove,US,45.52,-123.11,45.79,61,1,3.15,"http://api.openweathermap.org/data/2.5/weather?q=forest grove,us&units=imperial&appid=InsertKey"
High Level,CA,58.52,-117.14,35.6,64,5,4.7,"http://api.openweathermap.org/data/2.5/weather?q=high level,ca&units=imperial&appid=InsertKey"
Kropotkin,RU,45.44,40.58,29.38,74,0,2.82,"http://api.openweathermap.org/data/2.5/weather?q=kropotkin,ru&units=imperial&appid=InsertKey"
Yar-Sale,RU,66.83,70.83,4.99,95,48,18.25,"http://api.openweathermap.org/data/2.5/weather?q=yar-sale,ru&units=imperial&appid=InsertKey"
La Rioja,AR,-29.41,-66.85,89.32,38,12,7.74,"http://api.openweathermap.org/data/2.5/weather?q=la rioja,ar&units=imperial&appid=InsertKey"
Lanxi,CN,29.22,119.48,42.97,100,92,4.38,"http://api.openweathermap.org/data/2.5/weather?q=lanxi,cn&units=imperial&appid=InsertKey"
Yurimaguas,PE,-5.9,-76.08,91.4,59,20,3.36,"http://api.openweathermap.org/data/2.5/weather?q=yurimaguas,pe&units=imperial&appid=InsertKey"
Swan Hill,AU,-35.34,143.55,83.07,35,92,15.01,"http://api.openweathermap.org/data/2.5/weather?q=swan hill,au&units=imperial&appid=InsertKey"
Asmar,AF,35.03,71.36,34.51,100,88,2.15,"http://api.openweathermap.org/data/2.5/weather?q=asmar,af&units=imperial&appid=InsertKey"
Kampot,KH,10.62,104.18,69.7,96,20,3.6,"http://api.openweathermap.org/data/2.5/weather?q=kampot,kh&units=imperial&appid=InsertKey"
Ciudad Bolivar,VE,8.12,-63.55,79.78,90,24,8.97,"http://api.openweathermap.org/data/2.5/weather?q=ciudad bolivar,ve&units=imperial&appid=InsertKey"
Labuhan,ID,-6.88,112.21,80.37,100,56,7.63,"http://api.openweathermap.org/data/2.5/weather?q=labuhan,id&units=imperial&appid=InsertKey"
Quepos,CR,9.42,-84.17,69.89,68,40,16.11,"http://api.openweathermap.org/data/2.5/weather?q=quepos,cr&units=imperial&appid=InsertKey"
Sibu,MY,2.3,111.82,75.2,94,75,3.36,"http://api.openweathermap.org/data/2.5/weather?q=sibu,my&units=imperial&appid=InsertKey"
Eenhana,NA,-17.47,16.33,72.58,49,64,4.83,"http://api.openweathermap.org/data/2.5/weather?q=eenhana,na&units=imperial&appid=InsertKey"
Marica,BR,-22.92,-42.82,76.37,65,75,11.41,"http://api.openweathermap.org/data/2.5/weather?q=marica,br&units=imperial&appid=InsertKey"
Karratha,AU,-20.74,116.85,72.27,91,0,6.06,"http://api.openweathermap.org/data/2.5/weather?q=karratha,au&units=imperial&appid=InsertKey"
Walvis Bay,NA,-22.96,14.51,59.0,77,0,1.12,"http://api.openweathermap.org/data/2.5/weather?q=walvis bay,na&units=imperial&appid=InsertKey"
Chicaman,GT,15.4,-90.77,63.94,80,56,2.59,"http://api.openweathermap.org/data/2.5/weather?q=chicaman,gt&units=imperial&appid=InsertKey"
Mizan Teferi,ET,6.98,35.58,58.86,75,0,1.81,"http://api.openweathermap.org/data/2.5/weather?q=mizan teferi,et&units=imperial&appid=InsertKey"
Rapid Valley,US,44.06,-103.15,40.01,45,75,19.46,"http://api.openweathermap.org/data/2.5/weather?q=rapid valley,us&units=imperial&appid=InsertKey"
Camacha,PT,33.08,-16.33,62.6,82,40,5.82,"http://api.openweathermap.org/data/2.5/weather?q=camacha,pt&units=imperial&appid=InsertKey"
Nyurba,RU,63.28,118.33,-17.33,76,68,1.81,"http://api.openweathermap.org/data/2.5/weather?q=nyurba,ru&units=imperial&appid=InsertKey"
Cocorit,MX,27.58,-109.97,80.6,32,40,4.61,"http://api.openweathermap.org/data/2.5/weather?q=cocorit,mx&units=imperial&appid=InsertKey"
Nabire,ID,-3.37,135.48,68.67,96,88,2.15,"http://api.openweathermap.org/data/2.5/weather?q=nabire,id&units=imperial&appid=InsertKey"
Alugan,PH,12.22,125.48,76.41,100,92,20.83,"http://api.openweathermap.org/data/2.5/weather?q=alugan,ph&units=imperial&appid=InsertKey"
Vyartsilya,RU,62.18,30.69,26.32,92,88,14.23,"http://api.openweathermap.org/data/2.5/weather?q=vyartsilya,ru&units=imperial&appid=InsertKey"
Grand Gaube,MU,-20.01,57.66,78.8,88,75,6.93,"http://api.openweathermap.org/data/2.5/weather?q=grand gaube,mu&units=imperial&appid=InsertKey"
Sumbe,AO,-11.21,13.84,75.87,99,32,7.4,"http://api.openweathermap.org/data/2.5/weather?q=sumbe,ao&units=imperial&appid=InsertKey"
Sinnamary,GF,5.38,-52.95,78.57,100,88,7.74,"http://api.openweathermap.org/data/2.5/weather?q=sinnamary,gf&units=imperial&appid=InsertKey"
Haines Junction,CA,60.75,-137.51,17.46,87,20,2.93,"http://api.openweathermap.org/data/2.5/weather?q=haines junction,ca&units=imperial&appid=InsertKey"
Shahreza,IR,32.03,51.88,10.62,61,0,2.71,"http://api.openweathermap.org/data/2.5/weather?q=shahreza,ir&units=imperial&appid=InsertKey"
Port Shepstone,ZA,-30.74,30.45,67.81,100,92,15.01,"http://api.openweathermap.org/data/2.5/weather?q=port shepstone,za&units=imperial&appid=InsertKey"
Saint-Joseph,RE,-21.37,55.62,78.8,74,75,4.7,"http://api.openweathermap.org/data/2.5/weather?q=saint-joseph,re&units=imperial&appid=InsertKey"
Port Hardy,CA,50.7,-127.42,44.6,87,75,4.7,"http://api.openweathermap.org/data/2.5/weather?q=port hardy,ca&units=imperial&appid=InsertKey"
Rio Tercero,AR,-32.17,-64.11,75.46,74,0,13.33,"http://api.openweathermap.org/data/2.5/weather?q=rio tercero,ar&units=imperial&appid=InsertKey"
Bilibino,RU,68.05,166.44,-17.51,73,80,2.48,"http://api.openweathermap.org/data/2.5/weather?q=bilibino,ru&units=imperial&appid=InsertKey"
Tilichiki,RU,60.47,166.1,-14.14,63,80,5.61,"http://api.openweathermap.org/data/2.5/weather?q=tilichiki,ru&units=imperial&appid=InsertKey"
Pandrup,DK,57.22,9.68,36.36,94,88,11.65,"http://api.openweathermap.org/data/2.5/weather?q=pandrup,dk&units=imperial&appid=InsertKey"
Tire,TR,38.09,27.74,46.4,93,20,3.36,"http://api.openweathermap.org/data/2.5/weather?q=tire,tr&units=imperial&appid=InsertKey"
Morondava,MG,-20.28,44.28,80.64,88,0,1.7,"http://api.openweathermap.org/data/2.5/weather?q=morondava,mg&units=imperial&appid=InsertKey"
Udachnyy,RU,66.42,112.4,-23.72,68,56,2.93,"http://api.openweathermap.org/data/2.5/weather?q=udachnyy,ru&units=imperial&appid=InsertKey"
